{"type": "FeatureCollection", "features": [{"type": "Feature", "geometry": {"type": "Point", "coordinates": [-81.052396, 29.116157]}, "properties": {"ebird_locid": "L22635344", "observation_date": "2023-03-06 11:56", "individuals": 4, "ebird_valid": true, "ebird_reviewed": false, "locationPrivate": true, "ebird_subId": "S130323712", "ebird_location_name": "1719 Savannah Lane, Port Orange, Florida, US (29.116, -81.052)"}}, {"type": "Feature", "geometry": {"type": "Point", "coordinates": [-81.188616, 28.893636]}, "properties": {"ebird_locid": "L13409881", "observation_date": "2023-03-04 07:50", "individuals": 2, "ebird_valid": true, "ebird_reviewed": false, "locationPrivate": true, "ebird_subId": "S130115282", "ebird_location_name": "My Wildlife Sanctuary"}}, {"type": "Feature", "geometry": {"type": "Point", "coordinates": [-80.829261, 28.912874]}, "properties": {"ebird_locid": "L22881708", "observation_date": "2023-03-02 16:48", "individuals": 2, "ebird_valid": true, "ebird_reviewed": false, "locationPrivate": true, "ebird_subId": "S130019227", "ebird_location_name": "Canaveral National Seashore, Oak Hill US-FL 28.91287, -80.82926"}}, {"type": "Feature", "geometry": {"type": "Point", "coordinates": [-81.021155, 29.217298]}, "properties": {"ebird_locid": "L6126460", "observation_date": "2023-03-01 16:53", "individuals": 2, "ebird_valid": true, "ebird_reviewed": false, "locationPrivate": false, "ebird_subId": "S129948859", "ebird_location_name": "Sweetheart Trail (Main St to Int'l Speedway)"}}, {"type": "Feature", "geometry": {"type": "Point", "coordinates": [-81.2266, 28.9238]}, "properties": {"ebird_locid": "L233317", "observation_date": "2023-02-28 08:50", "individuals": 1, "ebird_valid": true, "ebird_reviewed": false, "locationPrivate": false, "ebird_subId": "S129846587", "ebird_location_name": "Lyonia Preserve"}}, {"type": "Feature", "geometry": {"type": "Point", "coordinates": [-81.261156, 28.990238]}, "properties": {"ebird_locid": "L22877421", "observation_date": "2023-02-27 13:24", "individuals": 1, "ebird_valid": true, "ebird_reviewed": false, "locationPrivate": true, "ebird_subId": "S129994784", "ebird_location_name": "600 Garden Club Dr, DeLand US-FL 28.99024, -81.26116"}}, {"type": "Feature", "geometry": {"type": "Point", "coordinates": [-81.016016, 29.154279]}, "properties": {"ebird_locid": "L5745098", "observation_date": "2023-02-27 10:34", "individuals": 4, "ebird_valid": true, "ebird_reviewed": false, "locationPrivate": false, "ebird_subId": "S129787661", "ebird_location_name": "Reed Canal Park"}}, {"type": "Feature", "geometry": {"type": "Point", "coordinates": [-80.991072, 29.127211]}, "properties": {"ebird_locid": "L1002760", "observation_date": "2023-02-27 07:55", "individuals": 2, "ebird_valid": true, "ebird_reviewed": false, "locationPrivate": false, "ebird_subId": "S129787604", "ebird_location_name": "Margaret Buschman Park"}}, {"type": "Feature", "geometry": {"type": "Point", "coordinates": [-81.26165, 28.980172]}, "properties": {"ebird_locid": "L22829788", "observation_date": "2023-02-26 17:00", "individuals": 1, "ebird_valid": true, "ebird_reviewed": false, "locationPrivate": true, "ebird_subId": "S129730143", "ebird_location_name": "Victoria Lake"}}, {"type": "Feature", "geometry": {"type": "Point", "coordinates": [-81.299802, 29.016613]}, "properties": {"ebird_locid": "L4102127", "observation_date": "2023-02-26 16:07", "individuals": 2, "ebird_valid": true, "ebird_reviewed": false, "locationPrivate": false, "ebird_subId": "S129726368", "ebird_location_name": "Earl Brown Park"}}, {"type": "Feature", "geometry": {"type": "Point", "coordinates": [-81.043898, 29.078591]}, "properties": {"ebird_locid": "L22810357", "observation_date": "2023-02-26 13:27", "individuals": 4, "ebird_valid": true, "ebird_reviewed": false, "locationPrivate": true, "ebird_subId": "S129713020", "ebird_location_name": "Spruce Creek Fly In\n210 Cessna Boulevard, Port Orange, Florida, US (29.079, -81.044)"}}, {"type": "Feature", "geometry": {"type": "Point", "coordinates": [-81.013589, 29.112]}, "properties": {"ebird_locid": "L22509621", "observation_date": "2023-02-25 17:33", "individuals": 2, "ebird_valid": true, "ebird_reviewed": false, "locationPrivate": true, "ebird_subId": "S129673713", "ebird_location_name": "971 Countryside West Blvd, Port Orange US-FL 29.11200, -81.01359"}}, {"type": "Feature", "geometry": {"type": "Point", "coordinates": [-80.944712, 29.10567]}, "properties": {"ebird_locid": "L5202921", "observation_date": "2023-02-24 09:02", "individuals": 3, "ebird_valid": true, "ebird_reviewed": false, "locationPrivate": false, "ebird_subId": "S129509689", "ebird_location_name": "Timucuan Oaks Garden"}}, {"type": "Feature", "geometry": {"type": "Point", "coordinates": [-81.003252, 29.131129]}, "properties": {"ebird_locid": "L6800610", "observation_date": "2023-02-22 11:20", "individuals": 3, "ebird_valid": true, "ebird_reviewed": false, "locationPrivate": false, "ebird_subId": "S129374385", "ebird_location_name": "Memorial Park"}}, {"type": "Feature", "geometry": {"type": "Point", "coordinates": [-81.341718, 28.943061]}, "properties": {"ebird_locid": "L22772690", "observation_date": "2023-02-22 10:10", "individuals": 1, "ebird_valid": true, "ebird_reviewed": false, "locationPrivate": true, "ebird_subId": "S129406256", "ebird_location_name": "2100 W French Ave, Orange City US-FL (28.9431,-81.3417)"}}, {"type": "Feature", "geometry": {"type": "Point", "coordinates": [-81.052795, 29.111526]}, "properties": {"ebird_locid": "L22759276", "observation_date": "2023-02-22 09:40", "individuals": 8, "ebird_valid": true, "ebird_reviewed": false, "locationPrivate": true, "ebird_subId": "S129403792", "ebird_location_name": "Town West Blvd"}}, {"type": "Feature", "geometry": {"type": "Point", "coordinates": [-81.297272, 28.507285]}, "properties": {"ebird_locid": "L3607648", "observation_date": "2023-03-07 10:10", "individuals": 13, "ebird_valid": true, "ebird_reviewed": false, "locationPrivate": true, "ebird_subId": "S130390861", "ebird_location_name": "Ventura"}}, {"type": "Feature", "geometry": {"type": "Point", "coordinates": [-81.464402, 28.518242]}, "properties": {"ebird_locid": "L22948239", "observation_date": "2023-03-07 08:39", "individuals": 12, "ebird_valid": true, "ebird_reviewed": false, "locationPrivate": true, "ebird_subId": "S130376588", "ebird_location_name": "Valencia West Campus South Pond"}}, {"type": "Feature", "geometry": {"type": "Point", "coordinates": [-81.301851, 28.510495]}, "properties": {"ebird_locid": "L21984807", "observation_date": "2023-03-07 07:41", "individuals": 4, "ebird_valid": true, "ebird_reviewed": false, "locationPrivate": true, "ebird_subId": "S130373532", "ebird_location_name": "3209 Westridge Blvd, Orlando US-FL 28.51050, -81.30185"}}, {"type": "Feature", "geometry": {"type": "Point", "coordinates": [-81.624537, 28.352715]}, "properties": {"ebird_locid": "L7903191", "observation_date": "2023-03-07 07:40", "individuals": 4, "ebird_valid": true, "ebird_reviewed": false, "locationPrivate": false, "ebird_subId": "S130378367", "ebird_location_name": "Orange Lake Resort--West Village"}}, {"type": "Feature", "geometry": {"type": "Point", "coordinates": [-81.543018, 28.350414]}, "properties": {"ebird_locid": "L1506815", "observation_date": "2023-03-07 07:23", "individuals": 1, "ebird_valid": true, "ebird_reviewed": false, "locationPrivate": false, "ebird_subId": "S130374051", "ebird_location_name": "Disney's Pop Century Resort"}}, {"type": "Feature", "geometry": {"type": "Point", "coordinates": [-81.322904, 28.596467]}, "properties": {"ebird_locid": "L745487", "observation_date": "2023-03-07 07:00", "individuals": 1, "ebird_valid": true, "ebird_reviewed": false, "locationPrivate": false, "ebird_subId": "S130389062", "ebird_location_name": "Ward Park"}}, {"type": "Feature", "geometry": {"type": "Point", "coordinates": [-81.51448, 28.371344]}, "properties": {"ebird_locid": "L2440827", "observation_date": "2023-03-06 16:38", "individuals": 1, "ebird_valid": true, "ebird_reviewed": false, "locationPrivate": false, "ebird_subId": "S130341434", "ebird_location_name": "Disney Springs"}}, {"type": "Feature", "geometry": {"type": "Point", "coordinates": [-81.571609, 28.410389]}, "properties": {"ebird_locid": "L3860725", "observation_date": "2023-03-06 16:35", "individuals": 2, "ebird_valid": true, "ebird_reviewed": false, "locationPrivate": false, "ebird_subId": "S130342074", "ebird_location_name": "Disney's Wilderness Lodge"}}, {"type": "Feature", "geometry": {"type": "Point", "coordinates": [-81.30168, 28.510385]}, "properties": {"ebird_locid": "L16814850", "observation_date": "2023-03-06 16:15", "individuals": 3, "ebird_valid": true, "ebird_reviewed": false, "locationPrivate": true, "ebird_subId": "S130340965", "ebird_location_name": "Ventura Country Club, Orlando US-FL 28.51038, -81.30168"}}, {"type": "Feature", "geometry": {"type": "Point", "coordinates": [-81.266792, 28.370785]}, "properties": {"ebird_locid": "L6266495", "observation_date": "2023-03-06 15:50", "individuals": 6, "ebird_valid": true, "ebird_reviewed": false, "locationPrivate": false, "ebird_subId": "S130344113", "ebird_location_name": "Tavistock Lakes"}}, {"type": "Feature", "geometry": {"type": "Point", "coordinates": [-81.42413, 28.499396]}, "properties": {"ebird_locid": "L3291788", "observation_date": "2023-03-06 12:09", "individuals": 2, "ebird_valid": true, "ebird_reviewed": false, "locationPrivate": false, "ebird_subId": "S130360165", "ebird_location_name": "Lake Millenia"}}, {"type": "Feature", "geometry": {"type": "Point", "coordinates": [-81.259109, 28.606773]}, "properties": {"ebird_locid": "L22936675", "observation_date": "2023-03-06 09:48", "individuals": 4, "ebird_valid": true, "ebird_reviewed": false, "locationPrivate": true, "ebird_subId": "S130313176", "ebird_location_name": "Bridgewater Dr."}}, {"type": "Feature", "geometry": {"type": "Point", "coordinates": [-81.590996, 28.359343]}, "properties": {"ebird_locid": "L970063", "observation_date": "2023-03-06 09:00", "individuals": 4, "ebird_valid": true, "ebird_reviewed": false, "locationPrivate": false, "ebird_subId": "S130357012", "ebird_location_name": "Walt Disney World--Animal Kingdom (do NOT report captive birds)"}}, {"type": "Feature", "geometry": {"type": "Point", "coordinates": [-81.371673, 28.506395]}, "properties": {"ebird_locid": "L10712834", "observation_date": "2023-03-06 08:38", "individuals": 3, "ebird_valid": true, "ebird_reviewed": false, "locationPrivate": true, "ebird_subId": "S130308471", "ebird_location_name": "Jewel Shores"}}, {"type": "Feature", "geometry": {"type": "Point", "coordinates": [-81.581254, 28.418787]}, "properties": {"ebird_locid": "L970066", "observation_date": "2023-03-06 08:36", "individuals": 1, "ebird_valid": true, "ebird_reviewed": false, "locationPrivate": false, "ebird_subId": "S130346398", "ebird_location_name": "Walt Disney World--Magic Kingdom"}}, {"type": "Feature", "geometry": {"type": "Point", "coordinates": [-81.370965, 28.506862]}, "properties": {"ebird_locid": "L13243988", "observation_date": "2023-03-06 07:42", "individuals": 4, "ebird_valid": true, "ebird_reviewed": false, "locationPrivate": true, "ebird_subId": "S130305350", "ebird_location_name": "Walk to Blankner School from Home"}}, {"type": "Feature", "geometry": {"type": "Point", "coordinates": [-81.373158, 28.544116]}, "properties": {"ebird_locid": "L374880", "observation_date": "2023-03-06 07:38", "individuals": 14, "ebird_valid": true, "ebird_reviewed": false, "locationPrivate": false, "ebird_subId": "S130310655", "ebird_location_name": "Lake Eola Park (please do not list exotic waterfowl)"}}, {"type": "Feature", "geometry": {"type": "Point", "coordinates": [-81.466121, 28.619291]}, "properties": {"ebird_locid": "L10095672", "observation_date": "2023-03-05 16:48", "individuals": 2, "ebird_valid": true, "ebird_reviewed": false, "locationPrivate": true, "ebird_subId": "S130269905", "ebird_location_name": "Long Lake"}}, {"type": "Feature", "geometry": {"type": "Point", "coordinates": [-81.549036, 28.371361]}, "properties": {"ebird_locid": "L200733", "observation_date": "2023-03-05 15:00", "individuals": 4, "ebird_valid": true, "ebird_reviewed": false, "locationPrivate": false, "ebird_subId": "S130286472", "ebird_location_name": "Walt Disney World--EPCOT"}}, {"type": "Feature", "geometry": {"type": "Point", "coordinates": [-81.318895, 28.533936]}, "properties": {"ebird_locid": "L22925531", "observation_date": "2023-03-05 13:15", "individuals": 2, "ebird_valid": true, "ebird_reviewed": false, "locationPrivate": true, "ebird_subId": "S130251210", "ebird_location_name": "Demetree Park, Orlando US-FL 28.53394, -81.31890"}}, {"type": "Feature", "geometry": {"type": "Point", "coordinates": [-81.607793, 28.431239]}, "properties": {"ebird_locid": "L10300918", "observation_date": "2023-03-05 10:17", "individuals": 1, "ebird_valid": true, "ebird_reviewed": false, "locationPrivate": true, "ebird_subId": "S130334889", "ebird_location_name": "8943\u20139039 Seidel Rd, Winter Garden US-FL (28.4312,-81.6078)"}}, {"type": "Feature", "geometry": {"type": "Point", "coordinates": [-81.430538, 28.367203]}, "properties": {"ebird_locid": "L22919506", "observation_date": "2023-03-05 09:55", "individuals": 8, "ebird_valid": true, "ebird_reviewed": false, "locationPrivate": true, "ebird_subId": "S130221649", "ebird_location_name": "Hunters Creek Ponds"}}, {"type": "Feature", "geometry": {"type": "Point", "coordinates": [-81.338227, 28.508589]}, "properties": {"ebird_locid": "L21069956", "observation_date": "2023-03-05 09:52", "individuals": 2, "ebird_valid": true, "ebird_reviewed": false, "locationPrivate": true, "ebird_subId": "S130215192", "ebird_location_name": "Home"}}, {"type": "Feature", "geometry": {"type": "Point", "coordinates": [-81.362439, 28.596057]}, "properties": {"ebird_locid": "L17620681", "observation_date": "2023-03-05 09:23", "individuals": 7, "ebird_valid": true, "ebird_reviewed": false, "locationPrivate": false, "ebird_subId": "S130212328", "ebird_location_name": "Martin Luther King Jr. Park"}}, {"type": "Feature", "geometry": {"type": "Point", "coordinates": [-81.56128, 28.669048]}, "properties": {"ebird_locid": "L298649", "observation_date": "2023-03-05 08:26", "individuals": 1, "ebird_valid": true, "ebird_reviewed": false, "locationPrivate": false, "ebird_subId": "S130228206", "ebird_location_name": "Lake Apopka Wildlife Drive"}}, {"type": "Feature", "geometry": {"type": "Point", "coordinates": [-81.4598, 28.406087]}, "properties": {"ebird_locid": "L5491391", "observation_date": "2023-03-05 08:04", "individuals": 2, "ebird_valid": true, "ebird_reviewed": false, "locationPrivate": false, "ebird_subId": "S130274453", "ebird_location_name": "Discovery Cove Orlando"}}, {"type": "Feature", "geometry": {"type": "Point", "coordinates": [-81.550457, 28.526312]}, "properties": {"ebird_locid": "L22916461", "observation_date": "2023-03-05 08:04", "individuals": 5, "ebird_valid": true, "ebird_reviewed": false, "locationPrivate": true, "ebird_subId": "S130204660", "ebird_location_name": "11651 Vicolo Loop, Windermere US-FL 28.52631, -81.55046"}}, {"type": "Feature", "geometry": {"type": "Point", "coordinates": [-81.31898, 28.533667]}, "properties": {"ebird_locid": "L4976439", "observation_date": "2023-03-05 07:30", "individuals": 4, "ebird_valid": true, "ebird_reviewed": false, "locationPrivate": false, "ebird_subId": "S130225552", "ebird_location_name": "Demetree Park"}}, {"type": "Feature", "geometry": {"type": "Point", "coordinates": [-81.3586, 28.5836]}, "properties": {"ebird_locid": "L127353", "observation_date": "2023-03-05 07:05", "individuals": 4, "ebird_valid": true, "ebird_reviewed": false, "locationPrivate": false, "ebird_subId": "S130214351", "ebird_location_name": "Mead Botanical Gardens"}}, {"type": "Feature", "geometry": {"type": "Point", "coordinates": [-81.492575, 28.3999]}, "properties": {"ebird_locid": "L9754941", "observation_date": "2023-03-05 06:58", "individuals": 4, "ebird_valid": true, "ebird_reviewed": false, "locationPrivate": true, "ebird_subId": "S130274465", "ebird_location_name": "Parc Soleil Hilton Orlando"}}, {"type": "Feature", "geometry": {"type": "Point", "coordinates": [-81.373226, 28.542412]}, "properties": {"ebird_locid": "L22908539", "observation_date": "2023-03-04 15:10", "individuals": 6, "ebird_valid": true, "ebird_reviewed": false, "locationPrivate": true, "ebird_subId": "S130163394", "ebird_location_name": "Lake Eola Park, Orlando US-FL 28.54241, -81.37323"}}, {"type": "Feature", "geometry": {"type": "Point", "coordinates": [-81.29646, 28.525984]}, "properties": {"ebird_locid": "L17048787", "observation_date": "2023-03-04 12:43", "individuals": 2, "ebird_valid": true, "ebird_reviewed": false, "locationPrivate": true, "ebird_subId": "S130142633", "ebird_location_name": "LeRoy Hoequist Park"}}, {"type": "Feature", "geometry": {"type": "Point", "coordinates": [-81.430726, 28.401108]}, "properties": {"ebird_locid": "L675861", "observation_date": "2023-03-04 12:00", "individuals": 1, "ebird_valid": true, "ebird_reviewed": false, "locationPrivate": false, "ebird_subId": "S130142943", "ebird_location_name": "Grande Lakes, Orlando"}}, {"type": "Feature", "geometry": {"type": "Point", "coordinates": [-81.506657, 28.394802]}, "properties": {"ebird_locid": "L19968024", "observation_date": "2023-03-04 09:23", "individuals": 2, "ebird_valid": true, "ebird_reviewed": false, "locationPrivate": true, "ebird_subId": "S130120104", "ebird_location_name": "11724 Reedy Creek Drive, Orlando, Florida, US (28.395, -81.507)"}}, {"type": "Feature", "geometry": {"type": "Point", "coordinates": [-81.36661, 28.621913]}, "properties": {"ebird_locid": "L235514", "observation_date": "2023-03-04 09:16", "individuals": 1, "ebird_valid": true, "ebird_reviewed": false, "locationPrivate": false, "ebird_subId": "S130120156", "ebird_location_name": "Lake Lilly"}}, {"type": "Feature", "geometry": {"type": "Point", "coordinates": [-81.326337, 28.576152]}, "properties": {"ebird_locid": "L745478", "observation_date": "2023-03-04 09:15", "individuals": 12, "ebird_valid": true, "ebird_reviewed": false, "locationPrivate": false, "ebird_subId": "S130148406", "ebird_location_name": "Lake Baldwin Park"}}, {"type": "Feature", "geometry": {"type": "Point", "coordinates": [-81.366959, 28.531607]}, "properties": {"ebird_locid": "L284289", "observation_date": "2023-03-04 08:57", "individuals": 3, "ebird_valid": true, "ebird_reviewed": false, "locationPrivate": false, "ebird_subId": "S130116790", "ebird_location_name": "Lake Davis"}}, {"type": "Feature", "geometry": {"type": "Point", "coordinates": [-81.510959, 28.53733]}, "properties": {"ebird_locid": "L15506896", "observation_date": "2023-03-04 08:28", "individuals": 2, "ebird_valid": true, "ebird_reviewed": false, "locationPrivate": false, "ebird_subId": "S130160188", "ebird_location_name": "Woodlawn Cemetery"}}, {"type": "Feature", "geometry": {"type": "Point", "coordinates": [-81.389511, 28.506268]}, "properties": {"ebird_locid": "L22909785", "observation_date": "2023-03-04 07:45", "individuals": 1, "ebird_valid": true, "ebird_reviewed": false, "locationPrivate": true, "ebird_subId": "S130169628", "ebird_location_name": "Lake Holden, Orlando"}}, {"type": "Feature", "geometry": {"type": "Point", "coordinates": [-81.262216, 28.60759]}, "properties": {"ebird_locid": "L18076867", "observation_date": "2023-03-04 07:12", "individuals": 1, "ebird_valid": true, "ebird_reviewed": false, "locationPrivate": true, "ebird_subId": "S130119280", "ebird_location_name": "4765 Lonsdale Cir, Orlando US-FL 28.60759, -81.26222"}}, {"type": "Feature", "geometry": {"type": "Point", "coordinates": [-81.299053, 28.510937]}, "properties": {"ebird_locid": "L21437864", "observation_date": "2023-03-04 06:30", "individuals": 13, "ebird_valid": true, "ebird_reviewed": false, "locationPrivate": true, "ebird_subId": "S130123194", "ebird_location_name": "Ventura Country Club, Orlando US-FL 28.51094, -81.29905"}}, {"type": "Feature", "geometry": {"type": "Point", "coordinates": [-81.467895, 28.618028]}, "properties": {"ebird_locid": "L22895523", "observation_date": "2023-03-03 18:00", "individuals": 6, "ebird_valid": true, "ebird_reviewed": false, "locationPrivate": true, "ebird_subId": "S130096683", "ebird_location_name": "6636 Sharon Drive, Orlando, Florida, US (28.618, -81.468)"}}, {"type": "Feature", "geometry": {"type": "Point", "coordinates": [-81.436813, 28.485219]}, "properties": {"ebird_locid": "L1424468", "observation_date": "2023-03-03 15:01", "individuals": 2, "ebird_valid": true, "ebird_reviewed": false, "locationPrivate": false, "ebird_subId": "S130072671", "ebird_location_name": "Millenia Lakes"}}, {"type": "Feature", "geometry": {"type": "Point", "coordinates": [-81.3666, 28.5745]}, "properties": {"ebird_locid": "L127352", "observation_date": "2023-03-03 14:21", "individuals": 5, "ebird_valid": true, "ebird_reviewed": false, "locationPrivate": false, "ebird_subId": "S130069293", "ebird_location_name": "Lake Estelle"}}, {"type": "Feature", "geometry": {"type": "Point", "coordinates": [-81.459889, 28.411634]}, "properties": {"ebird_locid": "L1100224", "observation_date": "2023-03-03 10:20", "individuals": 6, "ebird_valid": true, "ebird_reviewed": false, "locationPrivate": false, "ebird_subId": "S130085774", "ebird_location_name": "Seaworld"}}, {"type": "Feature", "geometry": {"type": "Point", "coordinates": [-81.356081, 28.569631]}, "properties": {"ebird_locid": "L686079", "observation_date": "2023-03-03 08:51", "individuals": 3, "ebird_valid": true, "ebird_reviewed": false, "locationPrivate": false, "ebird_subId": "S130112920", "ebird_location_name": "Harry P. Leu Gardens"}}, {"type": "Feature", "geometry": {"type": "Point", "coordinates": [-81.263754, 28.608469]}, "properties": {"ebird_locid": "L22893243", "observation_date": "2023-03-03 08:32", "individuals": 2, "ebird_valid": true, "ebird_reviewed": false, "locationPrivate": true, "ebird_subId": "S130084621", "ebird_location_name": "4830 Lonsdale Cir, Orlando US-FL 28.60847, -81.26375"}}, {"type": "Feature", "geometry": {"type": "Point", "coordinates": [-81.362439, 28.596057]}, "properties": {"ebird_locid": "L8499507", "observation_date": "2023-03-02 12:42", "individuals": 15, "ebird_valid": true, "ebird_reviewed": false, "locationPrivate": false, "ebird_subId": "S129998891", "ebird_location_name": "Martin Luther King Jr. Park"}}, {"type": "Feature", "geometry": {"type": "Point", "coordinates": [-81.318727, 28.530793]}, "properties": {"ebird_locid": "L22450194", "observation_date": "2023-03-02 12:38", "individuals": 2, "ebird_valid": true, "ebird_reviewed": false, "locationPrivate": true, "ebird_subId": "S130019133", "ebird_location_name": "Demetree"}}, {"type": "Feature", "geometry": {"type": "Point", "coordinates": [-81.232509, 28.517205]}, "properties": {"ebird_locid": "L15518647", "observation_date": "2023-03-02 09:33", "individuals": 4, "ebird_valid": true, "ebird_reviewed": false, "locationPrivate": true, "ebird_subId": "S129982031", "ebird_location_name": "10251 Cypress Springs Parkway, Orlando, Florida, US (28.517, -81.233)"}}, {"type": "Feature", "geometry": {"type": "Point", "coordinates": [-81.557007, 28.368821]}, "properties": {"ebird_locid": "L1901759", "observation_date": "2023-03-02 09:31", "individuals": 4, "ebird_valid": true, "ebird_reviewed": false, "locationPrivate": false, "ebird_subId": "S129981458", "ebird_location_name": "Walt Disney World--Epcot Resorts"}}, {"type": "Feature", "geometry": {"type": "Point", "coordinates": [-81.543219, 28.362425]}, "properties": {"ebird_locid": "L1391056", "observation_date": "2023-03-02 07:30", "individuals": 3, "ebird_valid": true, "ebird_reviewed": false, "locationPrivate": false, "ebird_subId": "S130023669", "ebird_location_name": "Disney's Caribbean Beach Resort"}}, {"type": "Feature", "geometry": {"type": "Point", "coordinates": [-81.319692, 28.5612]}, "properties": {"ebird_locid": "L22862559", "observation_date": "2023-03-02 06:55", "individuals": 1, "ebird_valid": true, "ebird_reviewed": false, "locationPrivate": true, "ebird_subId": "S129996117", "ebird_location_name": "Susannah Boulevard, Orlando, Florida, US"}}, {"type": "Feature", "geometry": {"type": "Point", "coordinates": [-81.3911, 28.5593]}, "properties": {"ebird_locid": "L127351", "observation_date": "2023-03-01 13:16", "individuals": 2, "ebird_valid": true, "ebird_reviewed": false, "locationPrivate": false, "ebird_subId": "S129933331", "ebird_location_name": "Lake Adair"}}, {"type": "Feature", "geometry": {"type": "Point", "coordinates": [-81.328645, 28.551443]}, "properties": {"ebird_locid": "L5268555", "observation_date": "2023-03-01 12:40", "individuals": 2, "ebird_valid": true, "ebird_reviewed": false, "locationPrivate": true, "ebird_subId": "S129980670", "ebird_location_name": "Orlando Executive Airport - Lake Georgette to Lake Barton"}}, {"type": "Feature", "geometry": {"type": "Point", "coordinates": [-81.461476, 28.702862]}, "properties": {"ebird_locid": "L22872287", "observation_date": "2023-03-01 10:56", "individuals": 4, "ebird_valid": true, "ebird_reviewed": false, "locationPrivate": true, "ebird_subId": "S129965617", "ebird_location_name": "Sweet water golf"}}, {"type": "Feature", "geometry": {"type": "Point", "coordinates": [-81.560125, 28.671509]}, "properties": {"ebird_locid": "L4323171", "observation_date": "2023-03-01 10:14", "individuals": 1, "ebird_valid": true, "ebird_reviewed": false, "locationPrivate": false, "ebird_subId": "S129922321", "ebird_location_name": "Lake Apopka North Shore--Lust Rd. Gate Area Only (Not for entire wildlife drive)"}}, {"type": "Feature", "geometry": {"type": "Point", "coordinates": [-81.448678, 28.427052]}, "properties": {"ebird_locid": "L5063461", "observation_date": "2023-03-01 09:05", "individuals": 3, "ebird_valid": true, "ebird_reviewed": false, "locationPrivate": false, "ebird_subId": "S129913369", "ebird_location_name": "Lake Cay Urban Trail"}}, {"type": "Feature", "geometry": {"type": "Point", "coordinates": [-81.399506, 28.559212]}, "properties": {"ebird_locid": "L2700195", "observation_date": "2023-03-01 09:00", "individuals": 2, "ebird_valid": true, "ebird_reviewed": false, "locationPrivate": true, "ebird_subId": "S129933825", "ebird_location_name": "Country Club of Orlando"}}, {"type": "Feature", "geometry": {"type": "Point", "coordinates": [-81.561127, 28.35651]}, "properties": {"ebird_locid": "L970058", "observation_date": "2023-03-01 08:25", "individuals": 2, "ebird_valid": true, "ebird_reviewed": false, "locationPrivate": false, "ebird_subId": "S129961820", "ebird_location_name": "Walt Disney World--Hollywood Studios"}}, {"type": "Feature", "geometry": {"type": "Point", "coordinates": [-81.333694, 28.588795]}, "properties": {"ebird_locid": "L13183642", "observation_date": "2023-03-01 08:18", "individuals": 1, "ebird_valid": true, "ebird_reviewed": false, "locationPrivate": true, "ebird_subId": "S129911556", "ebird_location_name": "Windsong North"}}, {"type": "Feature", "geometry": {"type": "Point", "coordinates": [-81.151695, 28.546022]}, "properties": {"ebird_locid": "L22078175", "observation_date": "2023-03-01 07:14", "individuals": 2, "ebird_valid": true, "ebird_reviewed": false, "locationPrivate": true, "ebird_subId": "S129904588", "ebird_location_name": "15102 Montesino Drive, Orlando, Florida, US (28.546, -81.152)"}}, {"type": "Feature", "geometry": {"type": "Point", "coordinates": [-81.556468, 28.364458]}, "properties": {"ebird_locid": "L22862380", "observation_date": "2023-03-01 07:14", "individuals": 2, "ebird_valid": true, "ebird_reviewed": false, "locationPrivate": true, "ebird_subId": "S129904956", "ebird_location_name": "Dolphin Resort to Hollywood Studios"}}, {"type": "Feature", "geometry": {"type": "Point", "coordinates": [-81.261223, 28.607046]}, "properties": {"ebird_locid": "L21121083", "observation_date": "2023-03-01 06:32", "individuals": 2, "ebird_valid": true, "ebird_reviewed": false, "locationPrivate": true, "ebird_subId": "S129905013", "ebird_location_name": "4700 Lake Sharp Dr, Orlando US-FL 28.60705, -81.26122"}}, {"type": "Feature", "geometry": {"type": "Point", "coordinates": [-81.490014, 28.407662]}, "properties": {"ebird_locid": "L1430164", "observation_date": "2023-02-28 11:55", "individuals": 2, "ebird_valid": true, "ebird_reviewed": false, "locationPrivate": false, "ebird_subId": "S129856581", "ebird_location_name": "Dr. P. Phillips Community Park"}}, {"type": "Feature", "geometry": {"type": "Point", "coordinates": [-81.370711, 28.532693]}, "properties": {"ebird_locid": "L6432109", "observation_date": "2023-02-28 11:35", "individuals": 4, "ebird_valid": true, "ebird_reviewed": false, "locationPrivate": false, "ebird_subId": "S129884468", "ebird_location_name": "Lake Cherokee"}}, {"type": "Feature", "geometry": {"type": "Point", "coordinates": [-81.375475, 28.534616]}, "properties": {"ebird_locid": "L6227866", "observation_date": "2023-02-28 10:50", "individuals": 1, "ebird_valid": true, "ebird_reviewed": false, "locationPrivate": false, "ebird_subId": "S129884162", "ebird_location_name": "Lake Lucerne"}}, {"type": "Feature", "geometry": {"type": "Point", "coordinates": [-81.379316, 28.529347]}, "properties": {"ebird_locid": "L2023270", "observation_date": "2023-02-28 10:14", "individuals": 2, "ebird_valid": true, "ebird_reviewed": false, "locationPrivate": false, "ebird_subId": "S129851178", "ebird_location_name": "Lake of the Woods"}}, {"type": "Feature", "geometry": {"type": "Point", "coordinates": [-81.36024, 28.52991]}, "properties": {"ebird_locid": "L2570368", "observation_date": "2023-02-28 09:35", "individuals": 2, "ebird_valid": true, "ebird_reviewed": false, "locationPrivate": false, "ebird_subId": "S129843031", "ebird_location_name": "Lake Weldona"}}, {"type": "Feature", "geometry": {"type": "Point", "coordinates": [-81.559495, 28.367625]}, "properties": {"ebird_locid": "L22862730", "observation_date": "2023-02-28 08:12", "individuals": 2, "ebird_valid": true, "ebird_reviewed": false, "locationPrivate": true, "ebird_subId": "S129907518", "ebird_location_name": "Walt Disney World Swan and Dolphin, Bay Lake US-FL (28.3676,-81.5595)"}}, {"type": "Feature", "geometry": {"type": "Point", "coordinates": [-81.477332, 28.403564]}, "properties": {"ebird_locid": "L22850856", "observation_date": "2023-02-28 07:01", "individuals": 2, "ebird_valid": true, "ebird_reviewed": false, "locationPrivate": true, "ebird_subId": "S129837091", "ebird_location_name": "Marriott Harbour Lake"}}, {"type": "Feature", "geometry": {"type": "Point", "coordinates": [-81.298127, 28.509601]}, "properties": {"ebird_locid": "L21438683", "observation_date": "2023-02-28 06:46", "individuals": 6, "ebird_valid": true, "ebird_reviewed": false, "locationPrivate": true, "ebird_subId": "S129839079", "ebird_location_name": "Ventura Country Club, Orlando US-FL 28.50960, -81.29813"}}, {"type": "Feature", "geometry": {"type": "Point", "coordinates": [-81.150697, 28.545745]}, "properties": {"ebird_locid": "L15992914", "observation_date": "2023-02-28 06:19", "individuals": 4, "ebird_valid": true, "ebird_reviewed": false, "locationPrivate": true, "ebird_subId": "S130388884", "ebird_location_name": "Sunny backyard with pond in Avalon Park area in Orlando"}}, {"type": "Feature", "geometry": {"type": "Point", "coordinates": [-81.477327, 28.386197]}, "properties": {"ebird_locid": "L6278023", "observation_date": "2023-02-27 17:51", "individuals": 4, "ebird_valid": true, "ebird_reviewed": false, "locationPrivate": false, "ebird_subId": "S129809737", "ebird_location_name": "Sheraton Vistana Resort"}}, {"type": "Feature", "geometry": {"type": "Point", "coordinates": [-81.475875, 28.384793]}, "properties": {"ebird_locid": "L4322144", "observation_date": "2023-02-27 12:53", "individuals": 5, "ebird_valid": true, "ebird_reviewed": false, "locationPrivate": true, "ebird_subId": "S129788501", "ebird_location_name": "Sheraton Vistana Villages Resort"}}, {"type": "Feature", "geometry": {"type": "Point", "coordinates": [-81.39372, 28.447729]}, "properties": {"ebird_locid": "L22847020", "observation_date": "2023-02-27 11:29", "individuals": 2, "ebird_valid": true, "ebird_reviewed": false, "locationPrivate": true, "ebird_subId": "S129814052", "ebird_location_name": "Parking, Orlando US-FL 28.44773, -81.39372"}}, {"type": "Feature", "geometry": {"type": "Point", "coordinates": [-81.577094, 28.461462]}, "properties": {"ebird_locid": "L22837018", "observation_date": "2023-02-27 09:38", "individuals": 2, "ebird_valid": true, "ebird_reviewed": false, "locationPrivate": true, "ebird_subId": "S129772037", "ebird_location_name": "6900\u20136968 Smithshire Ln, Windermere US-FL 28.46146, -81.57709"}}, {"type": "Feature", "geometry": {"type": "Point", "coordinates": [-81.356893, 28.351299]}, "properties": {"ebird_locid": "L983556", "observation_date": "2023-02-27 08:39", "individuals": 1, "ebird_valid": true, "ebird_reviewed": false, "locationPrivate": true, "ebird_subId": "S129770516", "ebird_location_name": "Meadow Woods, Florida"}}, {"type": "Feature", "geometry": {"type": "Point", "coordinates": [-80.996296, 28.571235]}, "properties": {"ebird_locid": "L452007", "observation_date": "2023-02-27 08:30", "individuals": 1, "ebird_valid": true, "ebird_reviewed": false, "locationPrivate": false, "ebird_subId": "S129789272", "ebird_location_name": "Orlando Wetlands Park"}}, {"type": "Feature", "geometry": {"type": "Point", "coordinates": [-81.263754, 28.608469]}, "properties": {"ebird_locid": "L22836512", "observation_date": "2023-02-27 08:09", "individuals": 2, "ebird_valid": true, "ebird_reviewed": false, "locationPrivate": true, "ebird_subId": "S129768778", "ebird_location_name": "4830 Lonsdale Cir, Orlando US-FL 28.60847, -81.26375"}}, {"type": "Feature", "geometry": {"type": "Point", "coordinates": [-81.545812, 28.402044]}, "properties": {"ebird_locid": "L22835919", "observation_date": "2023-02-27 06:48", "individuals": 2, "ebird_valid": true, "ebird_reviewed": false, "locationPrivate": true, "ebird_subId": "S129764848", "ebird_location_name": "Four Seasons Resort Orlando at Walt Disney World Resort, Bay Lake US-FL 28.40204, -81.54581"}}, {"type": "Feature", "geometry": {"type": "Point", "coordinates": [-81.489171, 28.624746]}, "properties": {"ebird_locid": "L7716920", "observation_date": "2023-02-27 06:46", "individuals": 2, "ebird_valid": true, "ebird_reviewed": false, "locationPrivate": true, "ebird_subId": "S129785164", "ebird_location_name": "Stables PRIVATE"}}, {"type": "Feature", "geometry": {"type": "Point", "coordinates": [-81.342063, 28.565915]}, "properties": {"ebird_locid": "L22618696", "observation_date": "2023-02-26 15:29", "individuals": 2, "ebird_valid": true, "ebird_reviewed": false, "locationPrivate": true, "ebird_subId": "S129725751", "ebird_location_name": "mom and dad's"}}, {"type": "Feature", "geometry": {"type": "Point", "coordinates": [-81.259097, 28.606373]}, "properties": {"ebird_locid": "L22827538", "observation_date": "2023-02-26 15:28", "individuals": 2, "ebird_valid": true, "ebird_reviewed": false, "locationPrivate": true, "ebird_subId": "S129718758", "ebird_location_name": "4544 Bridgewater Dr, Orlando US-FL (28.6064,-81.2591)"}}, {"type": "Feature", "geometry": {"type": "Point", "coordinates": [-81.559398, 28.669208]}, "properties": {"ebird_locid": "L22826123", "observation_date": "2023-02-26 11:03", "individuals": 2, "ebird_valid": true, "ebird_reviewed": false, "locationPrivate": true, "ebird_subId": "S129711437", "ebird_location_name": "Lake Apopka Wildlife Drive"}}, {"type": "Feature", "geometry": {"type": "Point", "coordinates": [-81.530348, 28.373103]}, "properties": {"ebird_locid": "L22818812", "observation_date": "2023-02-26 07:42", "individuals": 3, "ebird_valid": true, "ebird_reviewed": false, "locationPrivate": true, "ebird_subId": "S129672444", "ebird_location_name": "Disney's Old Key West Resort, Lake Buena Vista US-FL 28.37310, -81.53035"}}, {"type": "Feature", "geometry": {"type": "Point", "coordinates": [-81.263753, 28.608468]}, "properties": {"ebird_locid": "L22831749", "observation_date": "2023-02-26 06:50", "individuals": 3, "ebird_valid": true, "ebird_reviewed": false, "locationPrivate": true, "ebird_subId": "S129740822", "ebird_location_name": "4830 Lonsdale Cir, Orlando US-FL 28.60847, -81.26375"}}, {"type": "Feature", "geometry": {"type": "Point", "coordinates": [-81.48948, 28.447544]}, "properties": {"ebird_locid": "L1926012", "observation_date": "2023-02-25 16:39", "individuals": 4, "ebird_valid": true, "ebird_reviewed": false, "locationPrivate": false, "ebird_subId": "S129632057", "ebird_location_name": "Little Sand Lake"}}, {"type": "Feature", "geometry": {"type": "Point", "coordinates": [-81.500805, 28.368734]}, "properties": {"ebird_locid": "L22790123", "observation_date": "2023-02-25 11:12", "individuals": 2, "ebird_valid": true, "ebird_reviewed": false, "locationPrivate": true, "ebird_subId": "S129655536", "ebird_location_name": "Blue Heron Beach Resort, Orlando US-FL 28.36873, -81.50081"}}, {"type": "Feature", "geometry": {"type": "Point", "coordinates": [-81.466024, 28.473325]}, "properties": {"ebird_locid": "L22803416", "observation_date": "2023-02-25 10:27", "individuals": 5, "ebird_valid": true, "ebird_reviewed": false, "locationPrivate": true, "ebird_subId": "S129580232", "ebird_location_name": "Universal CityWalk, Orlando US-FL 28.47332, -81.46602"}}, {"type": "Feature", "geometry": {"type": "Point", "coordinates": [-81.263489, 28.608812]}, "properties": {"ebird_locid": "L21520481", "observation_date": "2023-02-25 08:48", "individuals": 2, "ebird_valid": true, "ebird_reviewed": false, "locationPrivate": true, "ebird_subId": "S129619593", "ebird_location_name": "4829 Lonsdale Cir, Orlando US-FL 28.60881, -81.26349"}}, {"type": "Feature", "geometry": {"type": "Point", "coordinates": [-81.369101, 28.589826]}, "properties": {"ebird_locid": "L6327261", "observation_date": "2023-02-25 07:55", "individuals": 2, "ebird_valid": true, "ebird_reviewed": false, "locationPrivate": true, "ebird_subId": "S129620049", "ebird_location_name": "Eagle Nest OR085"}}, {"type": "Feature", "geometry": {"type": "Point", "coordinates": [-81.343016, 28.539192]}, "properties": {"ebird_locid": "L1985563", "observation_date": "2023-02-25 07:50", "individuals": 3, "ebird_valid": true, "ebird_reviewed": false, "locationPrivate": false, "ebird_subId": "S129566445", "ebird_location_name": "Colonel Joe Kittinger Park"}}, {"type": "Feature", "geometry": {"type": "Point", "coordinates": [-81.190455, 28.603824]}, "properties": {"ebird_locid": "L10296874", "observation_date": "2023-02-25 07:45", "individuals": 1, "ebird_valid": true, "ebird_reviewed": false, "locationPrivate": false, "ebird_subId": "S129563968", "ebird_location_name": "UCF--Arboretum"}}, {"type": "Feature", "geometry": {"type": "Point", "coordinates": [-81.395832, 28.36777]}, "properties": {"ebird_locid": "L22253037", "observation_date": "2023-02-25 07:40", "individuals": 4, "ebird_valid": true, "ebird_reviewed": false, "locationPrivate": true, "ebird_subId": "S129593280", "ebird_location_name": "Courtney Chase Apartments"}}, {"type": "Feature", "geometry": {"type": "Point", "coordinates": [-81.486165, 28.35251]}, "properties": {"ebird_locid": "L22772809", "observation_date": "2023-02-24 17:19", "individuals": 2, "ebird_valid": true, "ebird_reviewed": false, "locationPrivate": true, "ebird_subId": "S129564985", "ebird_location_name": "Lake Buenavista Vista Resort Orlando US-FL (28.3525,-81.4862)"}}, {"type": "Feature", "geometry": {"type": "Point", "coordinates": [-81.263753, 28.608468]}, "properties": {"ebird_locid": "L22794624", "observation_date": "2023-02-24 08:50", "individuals": 3, "ebird_valid": true, "ebird_reviewed": false, "locationPrivate": true, "ebird_subId": "S129530886", "ebird_location_name": "4830 Lonsdale Cir, Orlando US-FL 28.60847, -81.26375"}}, {"type": "Feature", "geometry": {"type": "Point", "coordinates": [-81.544638, 28.378399]}, "properties": {"ebird_locid": "L22787318", "observation_date": "2023-02-24 07:07", "individuals": 2, "ebird_valid": true, "ebird_reviewed": false, "locationPrivate": true, "ebird_subId": "S129489952", "ebird_location_name": "EPCOT, Bay Lake US-FL (28.3784,-81.5446)"}}, {"type": "Feature", "geometry": {"type": "Point", "coordinates": [-81.427939, 28.406062]}, "properties": {"ebird_locid": "L1884909", "observation_date": "2023-02-23 19:32", "individuals": 2, "ebird_valid": true, "ebird_reviewed": false, "locationPrivate": false, "ebird_subId": "S129471935", "ebird_location_name": "The Ritz-Carlton Orlando"}}, {"type": "Feature", "geometry": {"type": "Point", "coordinates": [-81.466518, 28.468135]}, "properties": {"ebird_locid": "L7070467", "observation_date": "2023-02-23 17:59", "individuals": 1, "ebird_valid": true, "ebird_reviewed": false, "locationPrivate": false, "ebird_subId": "S129466406", "ebird_location_name": "Loews Royal Pacific Resort"}}, {"type": "Feature", "geometry": {"type": "Point", "coordinates": [-81.459718, 28.409728]}, "properties": {"ebird_locid": "L22800676", "observation_date": "2023-02-23 16:20", "individuals": 5, "ebird_valid": true, "ebird_reviewed": false, "locationPrivate": true, "ebird_subId": "S129563716", "ebird_location_name": "SeaWorld Orlando"}}, {"type": "Feature", "geometry": {"type": "Point", "coordinates": [-81.459682, 28.432351]}, "properties": {"ebird_locid": "L13818846", "observation_date": "2023-02-23 15:20", "individuals": 6, "ebird_valid": true, "ebird_reviewed": false, "locationPrivate": false, "ebird_subId": "S129457350", "ebird_location_name": "Orange County Convention Center--North Concourse"}}, {"type": "Feature", "geometry": {"type": "Point", "coordinates": [-81.581185, 28.418732]}, "properties": {"ebird_locid": "L22806137", "observation_date": "2023-02-23 10:00", "individuals": 4, "ebird_valid": true, "ebird_reviewed": false, "locationPrivate": true, "ebird_subId": "S129608117", "ebird_location_name": "Magic Kingdom Park, Bay Lake US-FL (28.4187,-81.5812)"}}, {"type": "Feature", "geometry": {"type": "Point", "coordinates": [-81.259196, 28.60644]}, "properties": {"ebird_locid": "L22777390", "observation_date": "2023-02-23 09:11", "individuals": 2, "ebird_valid": true, "ebird_reviewed": false, "locationPrivate": true, "ebird_subId": "S129431166", "ebird_location_name": "Water mill park"}}, {"type": "Feature", "geometry": {"type": "Point", "coordinates": [-81.534204, 28.352995]}, "properties": {"ebird_locid": "L22764239", "observation_date": "2023-02-23 08:56", "individuals": 2, "ebird_valid": true, "ebird_reviewed": false, "locationPrivate": true, "ebird_subId": "S129425887", "ebird_location_name": "Waldorf Astoria Orlando, Orlando US-FL"}}, {"type": "Feature", "geometry": {"type": "Point", "coordinates": [-81.259059, 28.606537]}, "properties": {"ebird_locid": "L22779647", "observation_date": "2023-02-23 08:18", "individuals": 1, "ebird_valid": true, "ebird_reviewed": false, "locationPrivate": true, "ebird_subId": "S129445047", "ebird_location_name": "4544 Bridgewater Dr, Orlando US-FL 28.60654, -81.25906"}}, {"type": "Feature", "geometry": {"type": "Point", "coordinates": [-81.421652, 28.360493]}, "properties": {"ebird_locid": "L3144444", "observation_date": "2023-02-23 07:12", "individuals": 4, "ebird_valid": true, "ebird_reviewed": false, "locationPrivate": false, "ebird_subId": "S129417697", "ebird_location_name": "Hunters Creek Lakes"}}, {"type": "Feature", "geometry": {"type": "Point", "coordinates": [-81.344694, 28.611189]}, "properties": {"ebird_locid": "L1925276", "observation_date": "2023-02-22 12:20", "individuals": 2, "ebird_valid": true, "ebird_reviewed": false, "locationPrivate": false, "ebird_subId": "S129371958", "ebird_location_name": "Kraft Azalea Garden"}}, {"type": "Feature", "geometry": {"type": "Point", "coordinates": [-81.232666, 28.518148]}, "properties": {"ebird_locid": "L14138785", "observation_date": "2023-02-22 09:57", "individuals": 3, "ebird_valid": true, "ebird_reviewed": false, "locationPrivate": true, "ebird_subId": "S129363149", "ebird_location_name": "10481 Water Hyacinth Drive, Orlando, Florida, US (28.518, -81.233)"}}, {"type": "Feature", "geometry": {"type": "Point", "coordinates": [-81.508257, 28.447471]}, "properties": {"ebird_locid": "L17782717", "observation_date": "2023-02-21 16:50", "individuals": 3, "ebird_valid": true, "ebird_reviewed": false, "locationPrivate": true, "ebird_subId": "S129389906", "ebird_location_name": "Rachel\u2019s house!"}}, {"type": "Feature", "geometry": {"type": "Point", "coordinates": [-81.367697, 28.495246]}, "properties": {"ebird_locid": "L21026556", "observation_date": "2023-02-21 16:08", "individuals": 12, "ebird_valid": true, "ebird_reviewed": false, "locationPrivate": true, "ebird_subId": "S129311852", "ebird_location_name": "Home"}}, {"type": "Feature", "geometry": {"type": "Point", "coordinates": [-81.567599, 28.485987]}, "properties": {"ebird_locid": "L17853060", "observation_date": "2023-02-21 15:32", "individuals": 4, "ebird_valid": true, "ebird_reviewed": false, "locationPrivate": true, "ebird_subId": "S129312666", "ebird_location_name": "H Lake House"}}, {"type": "Feature", "geometry": {"type": "Point", "coordinates": [-81.542106, 28.571329]}, "properties": {"ebird_locid": "L17669766", "observation_date": "2023-02-21 14:00", "individuals": 2, "ebird_valid": true, "ebird_reviewed": false, "locationPrivate": false, "ebird_subId": "S129302227", "ebird_location_name": "Bill Breeze Park"}}, {"type": "Feature", "geometry": {"type": "Point", "coordinates": [-81.326873, 28.674323]}, "properties": {"ebird_locid": "L726117", "observation_date": "2023-03-06 07:20", "individuals": 4, "ebird_valid": true, "ebird_reviewed": false, "locationPrivate": false, "ebird_subId": "S130323913", "ebird_location_name": "Secret Lake Park"}}, {"type": "Feature", "geometry": {"type": "Point", "coordinates": [-81.394145, 28.643825]}, "properties": {"ebird_locid": "L148596", "observation_date": "2023-03-05 06:57", "individuals": 1, "ebird_valid": true, "ebird_reviewed": false, "locationPrivate": true, "ebird_subId": "S130213659", "ebird_location_name": "SLHNWR (private)"}}, {"type": "Feature", "geometry": {"type": "Point", "coordinates": [-81.342676, 28.68074]}, "properties": {"ebird_locid": "L22908579", "observation_date": "2023-03-04 16:34", "individuals": 8, "ebird_valid": true, "ebird_reviewed": false, "locationPrivate": true, "ebird_subId": "S130163594", "ebird_location_name": "513 Misty Oaks Run, Casselberry, Florida, US (28.681, -81.343)"}}, {"type": "Feature", "geometry": {"type": "Point", "coordinates": [-81.203951, 28.624468]}, "properties": {"ebird_locid": "L22616850", "observation_date": "2023-03-04 12:32", "individuals": 2, "ebird_valid": true, "ebird_reviewed": false, "locationPrivate": true, "ebird_subId": "S130139692", "ebird_location_name": "3050 Division St, Oviedo US-FL 28.62447, -81.20395"}}, {"type": "Feature", "geometry": {"type": "Point", "coordinates": [-81.261438, 28.635576]}, "properties": {"ebird_locid": "L21347956", "observation_date": "2023-03-04 07:55", "individuals": 1, "ebird_valid": true, "ebird_reviewed": false, "locationPrivate": true, "ebird_subId": "S130116729", "ebird_location_name": "1703 Mira Ct, Oviedo US-FL 28.63558, -81.26144"}}, {"type": "Feature", "geometry": {"type": "Point", "coordinates": [-81.262373, 28.812897]}, "properties": {"ebird_locid": "L22892937", "observation_date": "2023-03-03 15:30", "individuals": 29, "ebird_valid": true, "ebird_reviewed": false, "locationPrivate": true, "ebird_subId": "S130083000", "ebird_location_name": "465\u2013499 E Seminole Blvd, Sanford US-FL 28.81290, -81.26237"}}, {"type": "Feature", "geometry": {"type": "Point", "coordinates": [-81.405945, 28.69902]}, "properties": {"ebird_locid": "L2152152", "observation_date": "2023-03-02 08:00", "individuals": 1, "ebird_valid": true, "ebird_reviewed": false, "locationPrivate": true, "ebird_subId": "S129981302", "ebird_location_name": "Sable Point"}}, {"type": "Feature", "geometry": {"type": "Point", "coordinates": [-81.336365, 28.810443]}, "properties": {"ebird_locid": "L22875179", "observation_date": "2023-03-01 14:30", "individuals": 2, "ebird_valid": true, "ebird_reviewed": false, "locationPrivate": true, "ebird_subId": "S129982193", "ebird_location_name": "Pond near Michael\u2019s"}}, {"type": "Feature", "geometry": {"type": "Point", "coordinates": [-81.289902, 28.650825]}, "properties": {"ebird_locid": "L1061116", "observation_date": "2023-03-01 10:11", "individuals": 3, "ebird_valid": true, "ebird_reviewed": false, "locationPrivate": false, "ebird_subId": "S129926719", "ebird_location_name": "Red Bug Lake Park"}}, {"type": "Feature", "geometry": {"type": "Point", "coordinates": [-81.309439, 28.639877]}, "properties": {"ebird_locid": "L10299022", "observation_date": "2023-02-26 07:35", "individuals": 2, "ebird_valid": true, "ebird_reviewed": false, "locationPrivate": false, "ebird_subId": "S129672965", "ebird_location_name": "Lake Howell"}}, {"type": "Feature", "geometry": {"type": "Point", "coordinates": [-81.267393, 28.814521]}, "properties": {"ebird_locid": "L17130180", "observation_date": "2023-02-23 11:23", "individuals": 18, "ebird_valid": true, "ebird_reviewed": false, "locationPrivate": false, "ebird_subId": "S129441878", "ebird_location_name": "Sanford River Walk"}}, {"type": "Feature", "geometry": {"type": "Point", "coordinates": [-81.18745, 28.658714]}, "properties": {"ebird_locid": "L10441482", "observation_date": "2023-02-21 17:00", "individuals": 3, "ebird_valid": true, "ebird_reviewed": false, "locationPrivate": true, "ebird_subId": "S129315542", "ebird_location_name": "Reformed Theological Seminary"}}, {"type": "Feature", "geometry": {"type": "Point", "coordinates": [-80.991072, 29.127211]}, "properties": {"ebird_locid": "L1002760", "observation_date": "2023-03-09 07:43", "individuals": 2, "ebird_valid": true, "ebird_reviewed": false, "locationPrivate": false, "ebird_subId": "S130518875", "ebird_location_name": "Margaret Buschman Park"}}, {"type": "Feature", "geometry": {"type": "Point", "coordinates": [-80.85097, 28.827736]}, "properties": {"ebird_locid": "L389616", "observation_date": "2023-03-09 06:20", "individuals": 2, "ebird_valid": true, "ebird_reviewed": false, "locationPrivate": false, "ebird_subId": "S130514589", "ebird_location_name": "Merritt Island NWR--Shiloh Marsh Rd. (Volusia Co.)"}}, {"type": "Feature", "geometry": {"type": "Point", "coordinates": [-80.921345, 29.067646]}, "properties": {"ebird_locid": "L3917783", "observation_date": "2023-03-07 07:35", "individuals": 5, "ebird_valid": true, "ebird_reviewed": false, "locationPrivate": false, "ebird_subId": "S130391442", "ebird_location_name": "Disappearing Island"}}, {"type": "Feature", "geometry": {"type": "Point", "coordinates": [-80.946461, 29.038327]}, "properties": {"ebird_locid": "L22943735", "observation_date": "2023-03-06 16:56", "individuals": 1, "ebird_valid": true, "ebird_reviewed": false, "locationPrivate": true, "ebird_subId": "S130351020", "ebird_location_name": "19 Fore Dr, New Smyrna Beach US-FL 29.03833, -80.94646"}}, {"type": "Feature", "geometry": {"type": "Point", "coordinates": [-81.039073, 29.138146]}, "properties": {"ebird_locid": "L16944876", "observation_date": "2023-03-05 07:17", "individuals": 2, "ebird_valid": true, "ebird_reviewed": false, "locationPrivate": true, "ebird_subId": "S130227474", "ebird_location_name": "Colony in the Wood Area (some restricted access)"}}, {"type": "Feature", "geometry": {"type": "Point", "coordinates": [-80.9132, 29.0694]}, "properties": {"ebird_locid": "L127377", "observation_date": "2023-03-03 07:51", "individuals": 2, "ebird_valid": true, "ebird_reviewed": false, "locationPrivate": false, "ebird_subId": "S130052181", "ebird_location_name": "Smyrna Dunes Park"}}, {"type": "Feature", "geometry": {"type": "Point", "coordinates": [-81.124892, 29.221999]}, "properties": {"ebird_locid": "L10804434", "observation_date": "2023-03-03 07:25", "individuals": 3, "ebird_valid": true, "ebird_reviewed": false, "locationPrivate": false, "ebird_subId": "S130055256", "ebird_location_name": "Latitude Margaritaville"}}, {"type": "Feature", "geometry": {"type": "Point", "coordinates": [-81.065933, 29.265015]}, "properties": {"ebird_locid": "L132478", "observation_date": "2023-03-02 10:02", "individuals": 2, "ebird_valid": true, "ebird_reviewed": false, "locationPrivate": false, "ebird_subId": "S130068023", "ebird_location_name": "Ormond Beach--Central Park"}}, {"type": "Feature", "geometry": {"type": "Point", "coordinates": [-81.341817, 28.942476]}, "properties": {"ebird_locid": "L278595", "observation_date": "2023-03-06 07:41", "individuals": 2, "ebird_valid": true, "ebird_reviewed": false, "locationPrivate": false, "ebird_subId": "S130353816", "ebird_location_name": "Blue Spring SP"}}, {"type": "Feature", "geometry": {"type": "Point", "coordinates": [-80.996296, 28.571235]}, "properties": {"ebird_locid": "L452007", "observation_date": "2023-03-09 14:25", "individuals": 3, "ebird_valid": true, "ebird_reviewed": false, "locationPrivate": false, "ebird_subId": "S130547066", "ebird_location_name": "Orlando Wetlands Park"}}, {"type": "Feature", "geometry": {"type": "Point", "coordinates": [-81.549036, 28.371361]}, "properties": {"ebird_locid": "L200733", "observation_date": "2023-03-09 11:11", "individuals": 4, "ebird_valid": true, "ebird_reviewed": false, "locationPrivate": false, "ebird_subId": "S130525882", "ebird_location_name": "Walt Disney World--EPCOT"}}, {"type": "Feature", "geometry": {"type": "Point", "coordinates": [-81.525695, 28.641139]}, "properties": {"ebird_locid": "L12043669", "observation_date": "2023-03-09 09:08", "individuals": 2, "ebird_valid": true, "ebird_reviewed": false, "locationPrivate": false, "ebird_subId": "S130510231", "ebird_location_name": "Dewar Nurseries retention ponds (bird from Marden Rd. only)"}}, {"type": "Feature", "geometry": {"type": "Point", "coordinates": [-81.3586, 28.5836]}, "properties": {"ebird_locid": "L127353", "observation_date": "2023-03-09 08:52", "individuals": 1, "ebird_valid": true, "ebird_reviewed": false, "locationPrivate": false, "ebird_subId": "S130516113", "ebird_location_name": "Mead Botanical Gardens"}}, {"type": "Feature", "geometry": {"type": "Point", "coordinates": [-81.554887, 28.675844]}, "properties": {"ebird_locid": "L15456221", "observation_date": "2023-03-09 08:25", "individuals": 2, "ebird_valid": true, "ebird_reviewed": false, "locationPrivate": false, "ebird_subId": "S130547300", "ebird_location_name": "Avian Pointe"}}, {"type": "Feature", "geometry": {"type": "Point", "coordinates": [-81.260151, 28.602943]}, "properties": {"ebird_locid": "L20505591", "observation_date": "2023-03-09 07:30", "individuals": 1, "ebird_valid": true, "ebird_reviewed": false, "locationPrivate": true, "ebird_subId": "S130509715", "ebird_location_name": "4406 Bridgewater Dr, Orlando US-FL 28.60294, -81.26015"}}, {"type": "Feature", "geometry": {"type": "Point", "coordinates": [-81.587364, 28.47243]}, "properties": {"ebird_locid": "L22964246", "observation_date": "2023-03-08 14:20", "individuals": 4, "ebird_valid": true, "ebird_reviewed": false, "locationPrivate": true, "ebird_subId": "S130466016", "ebird_location_name": "13520 Carroway St, Windermere US-FL 28.47243, -81.58736"}}, {"type": "Feature", "geometry": {"type": "Point", "coordinates": [-81.370249, 28.545313]}, "properties": {"ebird_locid": "L22961125", "observation_date": "2023-03-08 10:01", "individuals": 2, "ebird_valid": true, "ebird_reviewed": false, "locationPrivate": true, "ebird_subId": "S130448978", "ebird_location_name": "Lake Eola Park, Orlando US-FL 28.54531, -81.37025"}}, {"type": "Feature", "geometry": {"type": "Point", "coordinates": [-81.259656, 28.60705]}, "properties": {"ebird_locid": "L22962122", "observation_date": "2023-03-08 09:30", "individuals": 2, "ebird_valid": true, "ebird_reviewed": false, "locationPrivate": true, "ebird_subId": "S130454919", "ebird_location_name": "Orlando - Bridgewater St."}}, {"type": "Feature", "geometry": {"type": "Point", "coordinates": [-81.464402, 28.518242]}, "properties": {"ebird_locid": "L22948239", "observation_date": "2023-03-08 08:45", "individuals": 2, "ebird_valid": true, "ebird_reviewed": false, "locationPrivate": true, "ebird_subId": "S130447026", "ebird_location_name": "Valencia West Campus South Pond"}}, {"type": "Feature", "geometry": {"type": "Point", "coordinates": [-81.462553, 28.520256]}, "properties": {"ebird_locid": "L16939096", "observation_date": "2023-03-08 08:37", "individuals": 2, "ebird_valid": true, "ebird_reviewed": false, "locationPrivate": true, "ebird_subId": "S130442799", "ebird_location_name": "Lake Pamela"}}, {"type": "Feature", "geometry": {"type": "Point", "coordinates": [-81.000038, 28.580666]}, "properties": {"ebird_locid": "L9734429", "observation_date": "2023-03-08 07:45", "individuals": 2, "ebird_valid": true, "ebird_reviewed": false, "locationPrivate": true, "ebird_subId": "S130493183", "ebird_location_name": "Orlando Wetlands Park"}}, {"type": "Feature", "geometry": {"type": "Point", "coordinates": [-81.56128, 28.669048]}, "properties": {"ebird_locid": "L298649", "observation_date": "2023-03-08 07:14", "individuals": 3, "ebird_valid": true, "ebird_reviewed": false, "locationPrivate": false, "ebird_subId": "S130446586", "ebird_location_name": "Lake Apopka Wildlife Drive"}}, {"type": "Feature", "geometry": {"type": "Point", "coordinates": [-81.56369, 28.643509]}, "properties": {"ebird_locid": "L1598413", "observation_date": "2023-03-08 06:50", "individuals": 4, "ebird_valid": true, "ebird_reviewed": false, "locationPrivate": false, "ebird_subId": "S130445009", "ebird_location_name": "Lake Apopka Loop Trail--northeast section"}}, {"type": "Feature", "geometry": {"type": "Point", "coordinates": [-81.190665, 28.591743]}, "properties": {"ebird_locid": "L661723", "observation_date": "2023-03-07 11:28", "individuals": 2, "ebird_valid": true, "ebird_reviewed": false, "locationPrivate": false, "ebird_subId": "S130388945", "ebird_location_name": "UCF Robinson Observatory"}}, {"type": "Feature", "geometry": {"type": "Point", "coordinates": [-81.190455, 28.603824]}, "properties": {"ebird_locid": "L10296874", "observation_date": "2023-03-07 06:11", "individuals": 2, "ebird_valid": true, "ebird_reviewed": false, "locationPrivate": false, "ebird_subId": "S130374425", "ebird_location_name": "UCF--Arboretum"}}, {"type": "Feature", "geometry": {"type": "Point", "coordinates": [-81.522955, 28.376387]}, "properties": {"ebird_locid": "L1745613", "observation_date": "2023-03-06 17:59", "individuals": 2, "ebird_valid": true, "ebird_reviewed": false, "locationPrivate": false, "ebird_subId": "S130347644", "ebird_location_name": "Disney's Saratoga Springs Resort & Spa"}}, {"type": "Feature", "geometry": {"type": "Point", "coordinates": [-81.308177, 28.459176]}, "properties": {"ebird_locid": "L22912452", "observation_date": "2023-03-06 08:35", "individuals": 2, "ebird_valid": true, "ebird_reviewed": false, "locationPrivate": true, "ebird_subId": "S130332087", "ebird_location_name": "Holiday Inn Orlando International, Orlando, Florida, US (28.459, -81.308)"}}, {"type": "Feature", "geometry": {"type": "Point", "coordinates": [-81.263665, 28.608574]}, "properties": {"ebird_locid": "L22936782", "observation_date": "2023-03-06 07:25", "individuals": 2, "ebird_valid": true, "ebird_reviewed": false, "locationPrivate": true, "ebird_subId": "S130313796", "ebird_location_name": "4830 Lonsdale Cir, Orlando US-FL 28.60857, -81.26367"}}, {"type": "Feature", "geometry": {"type": "Point", "coordinates": [-81.366959, 28.531607]}, "properties": {"ebird_locid": "L284289", "observation_date": "2023-03-05 17:40", "individuals": 2, "ebird_valid": true, "ebird_reviewed": false, "locationPrivate": false, "ebird_subId": "S130360619", "ebird_location_name": "Lake Davis"}}, {"type": "Feature", "geometry": {"type": "Point", "coordinates": [-81.350914, 28.601186]}, "properties": {"ebird_locid": "L22932472", "observation_date": "2023-03-05 14:23", "individuals": 2, "ebird_valid": true, "ebird_reviewed": false, "locationPrivate": true, "ebird_subId": "S130287478", "ebird_location_name": "526 N Park Ave, Winter Park US-FL 28.60119, -81.35091"}}, {"type": "Feature", "geometry": {"type": "Point", "coordinates": [-81.560125, 28.671509]}, "properties": {"ebird_locid": "L4323171", "observation_date": "2023-03-05 09:15", "individuals": 1, "ebird_valid": true, "ebird_reviewed": false, "locationPrivate": false, "ebird_subId": "S130237034", "ebird_location_name": "Lake Apopka North Shore--Lust Rd. Gate Area Only (Not for entire wildlife drive)"}}, {"type": "Feature", "geometry": {"type": "Point", "coordinates": [-81.614798, 28.44936]}, "properties": {"ebird_locid": "L22128929", "observation_date": "2023-03-05 08:37", "individuals": 4, "ebird_valid": true, "ebird_reviewed": false, "locationPrivate": false, "ebird_subId": "S130212569", "ebird_location_name": "Summerlake Pond"}}, {"type": "Feature", "geometry": {"type": "Point", "coordinates": [-81.574878, 28.669016]}, "properties": {"ebird_locid": "L17949118", "observation_date": "2023-03-05 07:45", "individuals": 2, "ebird_valid": true, "ebird_reviewed": false, "locationPrivate": true, "ebird_subId": "S130355764", "ebird_location_name": "Lake Apopa Wildlife Drive"}}, {"type": "Feature", "geometry": {"type": "Point", "coordinates": [-81.534804, 28.646926]}, "properties": {"ebird_locid": "L22092067", "observation_date": "2023-03-05 07:37", "individuals": 2, "ebird_valid": true, "ebird_reviewed": false, "locationPrivate": false, "ebird_subId": "S130204231", "ebird_location_name": "Emerson Park wetlands and retention pond"}}, {"type": "Feature", "geometry": {"type": "Point", "coordinates": [-81.472967, 28.673862]}, "properties": {"ebird_locid": "L6752185", "observation_date": "2023-03-04 07:58", "individuals": 1, "ebird_valid": true, "ebird_reviewed": false, "locationPrivate": true, "ebird_subId": "S130116580", "ebird_location_name": "304-308 South Aurora Drive, Apopka, Florida, US (28.674, -81.473)"}}, {"type": "Feature", "geometry": {"type": "Point", "coordinates": [-81.599533, 28.689345]}, "properties": {"ebird_locid": "L559416", "observation_date": "2023-03-03 15:00", "individuals": 2, "ebird_valid": true, "ebird_reviewed": false, "locationPrivate": false, "ebird_subId": "S130081863", "ebird_location_name": "Lake Apopka North Shore--Orange County section (Please consider using more specific locations)"}}, {"type": "Feature", "geometry": {"type": "Point", "coordinates": [-81.555317, 28.669259]}, "properties": {"ebird_locid": "L22893292", "observation_date": "2023-03-03 14:23", "individuals": 2, "ebird_valid": true, "ebird_reviewed": false, "locationPrivate": true, "ebird_subId": "S130084853", "ebird_location_name": "Apopka Area"}}, {"type": "Feature", "geometry": {"type": "Point", "coordinates": [-81.550071, 28.633542]}, "properties": {"ebird_locid": "L298652", "observation_date": "2023-03-03 12:13", "individuals": 2, "ebird_valid": true, "ebird_reviewed": false, "locationPrivate": false, "ebird_subId": "S130068081", "ebird_location_name": "Magnolia Park"}}, {"type": "Feature", "geometry": {"type": "Point", "coordinates": [-81.609099, 28.683428]}, "properties": {"ebird_locid": "L22886194", "observation_date": "2023-03-03 08:40", "individuals": 2, "ebird_valid": true, "ebird_reviewed": false, "locationPrivate": true, "ebird_subId": "S130047173", "ebird_location_name": "Roach Rd, Apopka US-FL 28.68343, -81.60910"}}, {"type": "Feature", "geometry": {"type": "Point", "coordinates": [-81.477327, 28.386197]}, "properties": {"ebird_locid": "L6278023", "observation_date": "2023-03-02 13:05", "individuals": 2, "ebird_valid": true, "ebird_reviewed": false, "locationPrivate": false, "ebird_subId": "S129996797", "ebird_location_name": "Sheraton Vistana Resort"}}, {"type": "Feature", "geometry": {"type": "Point", "coordinates": [-81.545812, 28.402044]}, "properties": {"ebird_locid": "L22835919", "observation_date": "2023-03-02 07:30", "individuals": 2, "ebird_valid": true, "ebird_reviewed": false, "locationPrivate": true, "ebird_subId": "S129975320", "ebird_location_name": "Four Seasons Resort Orlando at Walt Disney World Resort, Bay Lake US-FL 28.40204, -81.54581"}}, {"type": "Feature", "geometry": {"type": "Point", "coordinates": [-81.107933, 28.486186]}, "properties": {"ebird_locid": "L1439093", "observation_date": "2023-03-02 07:30", "individuals": 2, "ebird_valid": true, "ebird_reviewed": false, "locationPrivate": false, "ebird_subId": "S130029729", "ebird_location_name": "Hal Scott Regional Preserve and Park"}}, {"type": "Feature", "geometry": {"type": "Point", "coordinates": [-81.479891, 28.389283]}, "properties": {"ebird_locid": "L3544868", "observation_date": "2023-03-01 11:06", "individuals": 2, "ebird_valid": true, "ebird_reviewed": false, "locationPrivate": false, "ebird_subId": "S129923880", "ebird_location_name": "The fountains resort--Water pier"}}, {"type": "Feature", "geometry": {"type": "Point", "coordinates": [-81.474098, 28.719035]}, "properties": {"ebird_locid": "L1597260", "observation_date": "2023-03-01 08:39", "individuals": 2, "ebird_valid": true, "ebird_reviewed": false, "locationPrivate": false, "ebird_subId": "S129922607", "ebird_location_name": "Wekiwa Springs SP--Sand Lake Parking"}}, {"type": "Feature", "geometry": {"type": "Point", "coordinates": [-81.553458, 28.677768]}, "properties": {"ebird_locid": "L14710973", "observation_date": "2023-02-28 06:45", "individuals": 2, "ebird_valid": true, "ebird_reviewed": false, "locationPrivate": true, "ebird_subId": "S129881105", "ebird_location_name": "Avian Pointe"}}, {"type": "Feature", "geometry": {"type": "Point", "coordinates": [-80.939122, 28.538561]}, "properties": {"ebird_locid": "L22839951", "observation_date": "2023-02-27 10:28", "individuals": 2, "ebird_valid": true, "ebird_reviewed": false, "locationPrivate": true, "ebird_subId": "S129781746", "ebird_location_name": "Saint Johns River, Titusville US-FL 28.53856, -80.93912 Midway Airboat tide"}}, {"type": "Feature", "geometry": {"type": "Point", "coordinates": [-81.469438, 28.424882]}, "properties": {"ebird_locid": "L15994771", "observation_date": "2023-02-25 15:00", "individuals": 4, "ebird_valid": true, "ebird_reviewed": false, "locationPrivate": false, "ebird_subId": "S129656405", "ebird_location_name": "Orange County Convention Center"}}, {"type": "Feature", "geometry": {"type": "Point", "coordinates": [-81.265666, 28.529102]}, "properties": {"ebird_locid": "L22764967", "observation_date": "2023-02-25 14:49", "individuals": 5, "ebird_valid": true, "ebird_reviewed": false, "locationPrivate": true, "ebird_subId": "S129659443", "ebird_location_name": "Rio Pinar Golf"}}, {"type": "Feature", "geometry": {"type": "Point", "coordinates": [-80.99668, 28.57533]}, "properties": {"ebird_locid": "L2636332", "observation_date": "2023-02-24 09:44", "individuals": 6, "ebird_valid": true, "ebird_reviewed": false, "locationPrivate": true, "ebird_subId": "S129522783", "ebird_location_name": "Orlando Wetlands Park"}}, {"type": "Feature", "geometry": {"type": "Point", "coordinates": [-81.259253, 28.606657]}, "properties": {"ebird_locid": "L22689932", "observation_date": "2023-03-08 14:15", "individuals": 2, "ebird_valid": true, "ebird_reviewed": false, "locationPrivate": true, "ebird_subId": "S130468854", "ebird_location_name": "Watermill Recreation Park & Pond"}}, {"type": "Feature", "geometry": {"type": "Point", "coordinates": [-81.3586, 28.5836]}, "properties": {"ebird_locid": "L127353", "observation_date": "2023-03-08 07:33", "individuals": 1, "ebird_valid": true, "ebird_reviewed": false, "locationPrivate": false, "ebird_subId": "S130452963", "ebird_location_name": "Mead Botanical Gardens"}}, {"type": "Feature", "geometry": {"type": "Point", "coordinates": [-81.356893, 28.351299]}, "properties": {"ebird_locid": "L983556", "observation_date": "2023-03-07 08:24", "individuals": 3, "ebird_valid": true, "ebird_reviewed": false, "locationPrivate": true, "ebird_subId": "S130376922", "ebird_location_name": "Meadow Woods, Florida"}}, {"type": "Feature", "geometry": {"type": "Point", "coordinates": [-81.56128, 28.669048]}, "properties": {"ebird_locid": "L298649", "observation_date": "2023-03-05 14:05", "individuals": 1, "ebird_valid": true, "ebird_reviewed": false, "locationPrivate": false, "ebird_subId": "S130265146", "ebird_location_name": "Lake Apopka Wildlife Drive"}}, {"type": "Feature", "geometry": {"type": "Point", "coordinates": [-81.307484, 28.461469]}, "properties": {"ebird_locid": "L22924251", "observation_date": "2023-03-05 12:33", "individuals": 1, "ebird_valid": true, "ebird_reviewed": false, "locationPrivate": true, "ebird_subId": "S130245945", "ebird_location_name": "Hampton Inn"}}, {"type": "Feature", "geometry": {"type": "Point", "coordinates": [-81.402857, 28.354812]}, "properties": {"ebird_locid": "L1533887", "observation_date": "2023-03-05 11:16", "individuals": 2, "ebird_valid": true, "ebird_reviewed": false, "locationPrivate": false, "ebird_subId": "S130244465", "ebird_location_name": "Gatorland"}}, {"type": "Feature", "geometry": {"type": "Point", "coordinates": [-81.362439, 28.596057]}, "properties": {"ebird_locid": "L17620681", "observation_date": "2023-03-04 09:37", "individuals": 1, "ebird_valid": true, "ebird_reviewed": false, "locationPrivate": false, "ebird_subId": "S130120080", "ebird_location_name": "Martin Luther King Jr. Park"}}, {"type": "Feature", "geometry": {"type": "Point", "coordinates": [-81.546388, 28.737522]}, "properties": {"ebird_locid": "L17965042", "observation_date": "2023-03-02 07:28", "individuals": 6, "ebird_valid": true, "ebird_reviewed": false, "locationPrivate": false, "ebird_subId": "S129978756", "ebird_location_name": "Northwest Recreation Complex"}}, {"type": "Feature", "geometry": {"type": "Point", "coordinates": [-81.348771, 28.578739]}, "properties": {"ebird_locid": "L758765", "observation_date": "2023-03-01 18:03", "individuals": 2, "ebird_valid": true, "ebird_reviewed": false, "locationPrivate": true, "ebird_subId": "S129974458", "ebird_location_name": "Lake Chelton"}}, {"type": "Feature", "geometry": {"type": "Point", "coordinates": [-81.243254, 28.388334]}, "properties": {"ebird_locid": "L22802174", "observation_date": "2023-02-25 09:15", "individuals": 2, "ebird_valid": true, "ebird_reviewed": false, "locationPrivate": true, "ebird_subId": "S129573170", "ebird_location_name": "10121 William Carey Drive, Lake Hart, Florida, US (28.388, -81.243)"}}, {"type": "Feature", "geometry": {"type": "Point", "coordinates": [-81.36739, 28.77814]}, "properties": {"ebird_locid": "L21914149", "observation_date": "2023-03-05 06:44", "individuals": 2, "ebird_valid": true, "ebird_reviewed": false, "locationPrivate": true, "ebird_subId": "S130201986", "ebird_location_name": "836 Stephens Pass Cove, Lake Mary US-FL 28.77814, -81.36739"}}, {"type": "Feature", "geometry": {"type": "Point", "coordinates": [-81.146404, 28.628264]}, "properties": {"ebird_locid": "L6609890", "observation_date": "2023-03-04 13:32", "individuals": 2, "ebird_valid": true, "ebird_reviewed": false, "locationPrivate": true, "ebird_subId": "S130149676", "ebird_location_name": "Live Oak Reserve--Neighborhood Pond and Lake Scon"}}, {"type": "Feature", "geometry": {"type": "Point", "coordinates": [-81.341976, 28.809474]}, "properties": {"ebird_locid": "L22881686", "observation_date": "2023-03-02 09:31", "individuals": 1, "ebird_valid": true, "ebird_reviewed": false, "locationPrivate": true, "ebird_subId": "S130019052", "ebird_location_name": "4909 Wayside Dr, Sanford US-FL 28.80947, -81.34198"}}, {"type": "Feature", "geometry": {"type": "Point", "coordinates": [-81.016016, 29.154279]}, "properties": {"ebird_locid": "L5745098", "observation_date": "2023-03-11 14:10", "individuals": 4, "ebird_valid": true, "ebird_reviewed": false, "locationPrivate": false, "ebird_subId": "S130681504", "ebird_location_name": "Reed Canal Park"}}, {"type": "Feature", "geometry": {"type": "Point", "coordinates": [-80.839287, 28.950482]}, "properties": {"ebird_locid": "L4027923", "observation_date": "2023-03-11 10:42", "individuals": 2, "ebird_valid": true, "ebird_reviewed": false, "locationPrivate": false, "ebird_subId": "S130656526", "ebird_location_name": "Mary McLeod Bethune Beach Park"}}, {"type": "Feature", "geometry": {"type": "Point", "coordinates": [-81.146264, 29.265487]}, "properties": {"ebird_locid": "L22985427", "observation_date": "2023-03-05 06:30", "individuals": 2, "ebird_valid": true, "ebird_reviewed": false, "locationPrivate": true, "ebird_subId": "S130586399", "ebird_location_name": "68 coquina ridge way, ormond beach, fla"}}, {"type": "Feature", "geometry": {"type": "Point", "coordinates": [-81.645274, 28.412263]}, "properties": {"ebird_locid": "L19612639", "observation_date": "2023-03-11 14:59", "individuals": 2, "ebird_valid": true, "ebird_reviewed": false, "locationPrivate": true, "ebird_subId": "S130688777", "ebird_location_name": "Home"}}, {"type": "Feature", "geometry": {"type": "Point", "coordinates": [-81.3586, 28.5836]}, "properties": {"ebird_locid": "L127353", "observation_date": "2023-03-11 14:49", "individuals": 1, "ebird_valid": true, "ebird_reviewed": false, "locationPrivate": false, "ebird_subId": "S130688961", "ebird_location_name": "Mead Botanical Gardens"}}, {"type": "Feature", "geometry": {"type": "Point", "coordinates": [-81.599533, 28.689345]}, "properties": {"ebird_locid": "L559416", "observation_date": "2023-03-11 11:55", "individuals": 2, "ebird_valid": true, "ebird_reviewed": false, "locationPrivate": false, "ebird_subId": "S130680832", "ebird_location_name": "Lake Apopka North Shore--Orange County section (Please consider using more specific locations)"}}, {"type": "Feature", "geometry": {"type": "Point", "coordinates": [-81.56128, 28.669048]}, "properties": {"ebird_locid": "L298649", "observation_date": "2023-03-11 10:23", "individuals": 3, "ebird_valid": true, "ebird_reviewed": false, "locationPrivate": false, "ebird_subId": "S130666788", "ebird_location_name": "Lake Apopka Wildlife Drive"}}, {"type": "Feature", "geometry": {"type": "Point", "coordinates": [-80.996296, 28.571235]}, "properties": {"ebird_locid": "L452007", "observation_date": "2023-03-11 10:18", "individuals": 6, "ebird_valid": true, "ebird_reviewed": false, "locationPrivate": false, "ebird_subId": "S130659875", "ebird_location_name": "Orlando Wetlands Park"}}, {"type": "Feature", "geometry": {"type": "Point", "coordinates": [-81.480439, 28.490801]}, "properties": {"ebird_locid": "L1421214", "observation_date": "2023-03-11 09:14", "individuals": 2, "ebird_valid": true, "ebird_reviewed": false, "locationPrivate": false, "ebird_subId": "S130653423", "ebird_location_name": "Shadow Bay Park"}}, {"type": "Feature", "geometry": {"type": "Point", "coordinates": [-81.464402, 28.518242]}, "properties": {"ebird_locid": "L22948239", "observation_date": "2023-03-11 08:48", "individuals": 1, "ebird_valid": true, "ebird_reviewed": false, "locationPrivate": true, "ebird_subId": "S130646524", "ebird_location_name": "Valencia West Campus South Pond"}}, {"type": "Feature", "geometry": {"type": "Point", "coordinates": [-81.462553, 28.520256]}, "properties": {"ebird_locid": "L16939096", "observation_date": "2023-03-11 08:34", "individuals": 2, "ebird_valid": true, "ebird_reviewed": false, "locationPrivate": true, "ebird_subId": "S130644800", "ebird_location_name": "Lake Pamela"}}, {"type": "Feature", "geometry": {"type": "Point", "coordinates": [-81.560125, 28.671509]}, "properties": {"ebird_locid": "L4323171", "observation_date": "2023-03-11 07:58", "individuals": 2, "ebird_valid": true, "ebird_reviewed": false, "locationPrivate": false, "ebird_subId": "S130645081", "ebird_location_name": "Lake Apopka North Shore--Lust Rd. Gate Area Only (Not for entire wildlife drive)"}}, {"type": "Feature", "geometry": {"type": "Point", "coordinates": [-81.18051, 28.513199]}, "properties": {"ebird_locid": "L22494243", "observation_date": "2023-03-11 06:50", "individuals": 2, "ebird_valid": true, "ebird_reviewed": false, "locationPrivate": false, "ebird_subId": "S130637528", "ebird_location_name": "Stoneybrook East Golf Club"}}, {"type": "Feature", "geometry": {"type": "Point", "coordinates": [-81.554887, 28.675844]}, "properties": {"ebird_locid": "L15456221", "observation_date": "2023-03-09 08:00", "individuals": 2, "ebird_valid": true, "ebird_reviewed": false, "locationPrivate": false, "ebird_subId": "S130541134", "ebird_location_name": "Avian Pointe"}}, {"type": "Feature", "geometry": {"type": "Point", "coordinates": [-81.466121, 28.619291]}, "properties": {"ebird_locid": "L10095672", "observation_date": "2023-03-11 13:30", "individuals": 4, "ebird_valid": true, "ebird_reviewed": false, "locationPrivate": true, "ebird_subId": "S130679781", "ebird_location_name": "Long Lake"}}, {"type": "Feature", "geometry": {"type": "Point", "coordinates": [-81.3586, 28.5836]}, "properties": {"ebird_locid": "L127353", "observation_date": "2023-03-11 07:01", "individuals": 2, "ebird_valid": true, "ebird_reviewed": false, "locationPrivate": false, "ebird_subId": "S130656700", "ebird_location_name": "Mead Botanical Gardens"}}, {"type": "Feature", "geometry": {"type": "Point", "coordinates": [-81.189872, 28.60676]}, "properties": {"ebird_locid": "L18452833", "observation_date": "2023-03-10 17:54", "individuals": 2, "ebird_valid": true, "ebird_reviewed": false, "locationPrivate": true, "ebird_subId": "S130614915", "ebird_location_name": "UCF PUMA Houses #7 & 8"}}, {"type": "Feature", "geometry": {"type": "Point", "coordinates": [-81.549036, 28.371361]}, "properties": {"ebird_locid": "L200733", "observation_date": "2023-03-10 15:45", "individuals": 1, "ebird_valid": true, "ebird_reviewed": false, "locationPrivate": false, "ebird_subId": "S130610967", "ebird_location_name": "Walt Disney World--EPCOT"}}, {"type": "Feature", "geometry": {"type": "Point", "coordinates": [-81.586575, 28.577201]}, "properties": {"ebird_locid": "L2772868", "observation_date": "2023-03-10 06:51", "individuals": 3, "ebird_valid": true, "ebird_reviewed": false, "locationPrivate": false, "ebird_subId": "S130573576", "ebird_location_name": "Newton Park"}}, {"type": "Feature", "geometry": {"type": "Point", "coordinates": [-81.364626, 28.626802]}, "properties": {"ebird_locid": "L22978904", "observation_date": "2023-03-09 16:55", "individuals": 4, "ebird_valid": true, "ebird_reviewed": false, "locationPrivate": true, "ebird_subId": "S130548672", "ebird_location_name": "Sanford Brewing Company"}}, {"type": "Feature", "geometry": {"type": "Point", "coordinates": [-81.36739, 28.77814]}, "properties": {"ebird_locid": "L21914149", "observation_date": "2023-03-11 07:33", "individuals": 1, "ebird_valid": true, "ebird_reviewed": false, "locationPrivate": true, "ebird_subId": "S130642345", "ebird_location_name": "836 Stephens Pass Cove, Lake Mary US-FL 28.77814, -81.36739"}}, {"type": "Feature", "geometry": {"type": "Point", "coordinates": [-81.26006, 28.81237]}, "properties": {"ebird_locid": "L1769762", "observation_date": "2023-03-11 11:45", "individuals": 4, "ebird_valid": true, "ebird_reviewed": false, "locationPrivate": false, "ebird_subId": "S130665619", "ebird_location_name": "Fort Mellon Park and Marina"}}, {"type": "Feature", "geometry": {"type": "Point", "coordinates": [-81.261438, 28.635576]}, "properties": {"ebird_locid": "L21347956", "observation_date": "2023-03-11 08:30", "individuals": 2, "ebird_valid": true, "ebird_reviewed": false, "locationPrivate": true, "ebird_subId": "S130647697", "ebird_location_name": "1703 Mira Ct, Oviedo US-FL 28.63558, -81.26144"}}, {"type": "Feature", "geometry": {"type": "Point", "coordinates": [-80.944712, 29.10567]}, "properties": {"ebird_locid": "L5202921", "observation_date": "2023-03-20 09:50", "individuals": 2, "ebird_valid": true, "ebird_reviewed": false, "locationPrivate": false, "ebird_subId": "S131372716", "ebird_location_name": "Timucuan Oaks Garden"}}, {"type": "Feature", "geometry": {"type": "Point", "coordinates": [-80.972489, 29.094005]}, "properties": {"ebird_locid": "L463159", "observation_date": "2023-03-20 09:35", "individuals": 2, "ebird_valid": true, "ebird_reviewed": false, "locationPrivate": false, "ebird_subId": "S131386868", "ebird_location_name": "Spruce Creek Park"}}, {"type": "Feature", "geometry": {"type": "Point", "coordinates": [-80.9211, 29.077]}, "properties": {"ebird_locid": "L127376", "observation_date": "2023-03-20 07:22", "individuals": 2, "ebird_valid": true, "ebird_reviewed": false, "locationPrivate": false, "ebird_subId": "S131366877", "ebird_location_name": "Lighthouse Point Park & Jetty"}}, {"type": "Feature", "geometry": {"type": "Point", "coordinates": [-81.27918, 28.903004]}, "properties": {"ebird_locid": "L23130664", "observation_date": "2023-03-19 16:47", "individuals": 1, "ebird_valid": true, "ebird_reviewed": false, "locationPrivate": true, "ebird_subId": "S131324795", "ebird_location_name": "530 Lanyard Ln, DeBary US-FL (28.9030,-81.2792)"}}, {"type": "Feature", "geometry": {"type": "Point", "coordinates": [-81.065933, 29.265015]}, "properties": {"ebird_locid": "L132478", "observation_date": "2023-03-19 09:27", "individuals": 2, "ebird_valid": true, "ebird_reviewed": false, "locationPrivate": false, "ebird_subId": "S131279726", "ebird_location_name": "Ormond Beach--Central Park"}}, {"type": "Feature", "geometry": {"type": "Point", "coordinates": [-80.85097, 28.827736]}, "properties": {"ebird_locid": "L389616", "observation_date": "2023-03-19 08:03", "individuals": 15, "ebird_valid": true, "ebird_reviewed": false, "locationPrivate": false, "ebird_subId": "S131313543", "ebird_location_name": "Merritt Island NWR--Shiloh Marsh Rd. (Volusia Co.)"}}, {"type": "Feature", "geometry": {"type": "Point", "coordinates": [-81.257832, 28.998915]}, "properties": {"ebird_locid": "L23104096", "observation_date": "2023-03-18 09:00", "individuals": 10, "ebird_valid": true, "ebird_reviewed": false, "locationPrivate": true, "ebird_subId": "S131193278", "ebird_location_name": "Victoria Gardens Dr, DeLand US-FL 28.99892, -81.25783"}}, {"type": "Feature", "geometry": {"type": "Point", "coordinates": [-80.857766, 28.972823]}, "properties": {"ebird_locid": "L23093902", "observation_date": "2023-03-17 18:52", "individuals": 2, "ebird_valid": true, "ebird_reviewed": false, "locationPrivate": true, "ebird_subId": "S131140693", "ebird_location_name": "Ocean Walk"}}, {"type": "Feature", "geometry": {"type": "Point", "coordinates": [-80.841047, 28.920514]}, "properties": {"ebird_locid": "L9451376", "observation_date": "2023-03-15 13:09", "individuals": 2, "ebird_valid": true, "ebird_reviewed": false, "locationPrivate": false, "ebird_subId": "S130974355", "ebird_location_name": "Indian River Lagoon"}}, {"type": "Feature", "geometry": {"type": "Point", "coordinates": [-80.915889, 29.031302]}, "properties": {"ebird_locid": "L6763389", "observation_date": "2023-03-15 09:12", "individuals": 4, "ebird_valid": true, "ebird_reviewed": false, "locationPrivate": true, "ebird_subId": "S130970223", "ebird_location_name": "Indian River North from North Causeway Boat Ramp"}}, {"type": "Feature", "geometry": {"type": "Point", "coordinates": [-81.086038, 29.288102]}, "properties": {"ebird_locid": "L10440524", "observation_date": "2023-03-14 09:10", "individuals": 2, "ebird_valid": true, "ebird_reviewed": false, "locationPrivate": false, "ebird_subId": "S131420748", "ebird_location_name": "Nova Community Park"}}, {"type": "Feature", "geometry": {"type": "Point", "coordinates": [-81.546388, 28.737522]}, "properties": {"ebird_locid": "L17965042", "observation_date": "2023-03-20 15:03", "individuals": 2, "ebird_valid": true, "ebird_reviewed": false, "locationPrivate": false, "ebird_subId": "S131414155", "ebird_location_name": "Northwest Recreation Complex"}}, {"type": "Feature", "geometry": {"type": "Point", "coordinates": [-80.996296, 28.571235]}, "properties": {"ebird_locid": "L452007", "observation_date": "2023-03-20 11:21", "individuals": 5, "ebird_valid": true, "ebird_reviewed": false, "locationPrivate": false, "ebird_subId": "S131385005", "ebird_location_name": "Orlando Wetlands Park"}}, {"type": "Feature", "geometry": {"type": "Point", "coordinates": [-81.489171, 28.624746]}, "properties": {"ebird_locid": "L7716920", "observation_date": "2023-03-20 07:31", "individuals": 1, "ebird_valid": true, "ebird_reviewed": false, "locationPrivate": true, "ebird_subId": "S131390362", "ebird_location_name": "Stables PRIVATE"}}, {"type": "Feature", "geometry": {"type": "Point", "coordinates": [-81.59346, 28.6682]}, "properties": {"ebird_locid": "L3281871", "observation_date": "2023-03-19 14:48", "individuals": 2, "ebird_valid": true, "ebird_reviewed": false, "locationPrivate": false, "ebird_subId": "S131332620", "ebird_location_name": "Lake Apopka North Shore--Pump House Area"}}, {"type": "Feature", "geometry": {"type": "Point", "coordinates": [-81.56128, 28.669048]}, "properties": {"ebird_locid": "L298649", "observation_date": "2023-03-19 10:55", "individuals": 6, "ebird_valid": true, "ebird_reviewed": false, "locationPrivate": false, "ebird_subId": "S131306871", "ebird_location_name": "Lake Apopka Wildlife Drive"}}, {"type": "Feature", "geometry": {"type": "Point", "coordinates": [-81.472967, 28.673862]}, "properties": {"ebird_locid": "L6752185", "observation_date": "2023-03-19 08:18", "individuals": 1, "ebird_valid": true, "ebird_reviewed": false, "locationPrivate": true, "ebird_subId": "S131269974", "ebird_location_name": "304-308 South Aurora Drive, Apopka, Florida, US (28.674, -81.473)"}}, {"type": "Feature", "geometry": {"type": "Point", "coordinates": [-81.585206, 28.405389]}, "properties": {"ebird_locid": "L1492663", "observation_date": "2023-03-18 18:34", "individuals": 1, "ebird_valid": true, "ebird_reviewed": false, "locationPrivate": false, "ebird_subId": "S131240438", "ebird_location_name": "Disney's Polynesian Village Resort"}}, {"type": "Feature", "geometry": {"type": "Point", "coordinates": [-81.590996, 28.359343]}, "properties": {"ebird_locid": "L970063", "observation_date": "2023-03-18 15:24", "individuals": 4, "ebird_valid": true, "ebird_reviewed": false, "locationPrivate": false, "ebird_subId": "S131228713", "ebird_location_name": "Walt Disney World--Animal Kingdom (do NOT report captive birds)"}}, {"type": "Feature", "geometry": {"type": "Point", "coordinates": [-81.430726, 28.401108]}, "properties": {"ebird_locid": "L675861", "observation_date": "2023-03-18 13:43", "individuals": 1, "ebird_valid": true, "ebird_reviewed": false, "locationPrivate": false, "ebird_subId": "S131201076", "ebird_location_name": "Grande Lakes, Orlando"}}, {"type": "Feature", "geometry": {"type": "Point", "coordinates": [-81.581254, 28.418787]}, "properties": {"ebird_locid": "L970066", "observation_date": "2023-03-18 11:23", "individuals": 1, "ebird_valid": true, "ebird_reviewed": false, "locationPrivate": false, "ebird_subId": "S131207045", "ebird_location_name": "Walt Disney World--Magic Kingdom"}}, {"type": "Feature", "geometry": {"type": "Point", "coordinates": [-81.560125, 28.671509]}, "properties": {"ebird_locid": "L4323171", "observation_date": "2023-03-18 07:34", "individuals": 1, "ebird_valid": true, "ebird_reviewed": false, "locationPrivate": false, "ebird_subId": "S131204503", "ebird_location_name": "Lake Apopka North Shore--Lust Rd. Gate Area Only (Not for entire wildlife drive)"}}, {"type": "Feature", "geometry": {"type": "Point", "coordinates": [-81.575094, 28.459453]}, "properties": {"ebird_locid": "L12109624", "observation_date": "2023-03-17 17:30", "individuals": 2, "ebird_valid": true, "ebird_reviewed": false, "locationPrivate": true, "ebird_subId": "S131134843", "ebird_location_name": "Windermere Sound Pond"}}, {"type": "Feature", "geometry": {"type": "Point", "coordinates": [-80.935714, 28.542339]}, "properties": {"ebird_locid": "L1897275", "observation_date": "2023-03-17 16:55", "individuals": 1, "ebird_valid": true, "ebird_reviewed": false, "locationPrivate": false, "ebird_subId": "S131133890", "ebird_location_name": "SR-50 Public Boat Ramp (Orange co.)"}}, {"type": "Feature", "geometry": {"type": "Point", "coordinates": [-81.469438, 28.424882]}, "properties": {"ebird_locid": "L15994771", "observation_date": "2023-03-17 14:03", "individuals": 2, "ebird_valid": true, "ebird_reviewed": false, "locationPrivate": false, "ebird_subId": "S131119321", "ebird_location_name": "Orange County Convention Center"}}, {"type": "Feature", "geometry": {"type": "Point", "coordinates": [-81.599533, 28.689345]}, "properties": {"ebird_locid": "L559416", "observation_date": "2023-03-17 12:40", "individuals": 2, "ebird_valid": true, "ebird_reviewed": false, "locationPrivate": false, "ebird_subId": "S131127535", "ebird_location_name": "Lake Apopka North Shore--Orange County section (Please consider using more specific locations)"}}, {"type": "Feature", "geometry": {"type": "Point", "coordinates": [-81.561126, 28.438324]}, "properties": {"ebird_locid": "L13652959", "observation_date": "2023-03-17 09:51", "individuals": 3, "ebird_valid": true, "ebird_reviewed": false, "locationPrivate": true, "ebird_subId": "S131100528", "ebird_location_name": "11776 Gray Rock Trail, Windermere US-FL 28.43832, -81.56113"}}, {"type": "Feature", "geometry": {"type": "Point", "coordinates": [-81.107933, 28.486186]}, "properties": {"ebird_locid": "L1439093", "observation_date": "2023-03-17 08:55", "individuals": 3, "ebird_valid": true, "ebird_reviewed": false, "locationPrivate": false, "ebird_subId": "S131115795", "ebird_location_name": "Hal Scott Regional Preserve and Park"}}, {"type": "Feature", "geometry": {"type": "Point", "coordinates": [-81.560181, 28.669153]}, "properties": {"ebird_locid": "L23091265", "observation_date": "2023-03-17 08:17", "individuals": 2, "ebird_valid": true, "ebird_reviewed": false, "locationPrivate": true, "ebird_subId": "S131127637", "ebird_location_name": "2850 Lust Rd, Apopka US-FL 28.66915, -81.56018"}}, {"type": "Feature", "geometry": {"type": "Point", "coordinates": [-81.262216, 28.60759]}, "properties": {"ebird_locid": "L18076867", "observation_date": "2023-03-17 07:37", "individuals": 1, "ebird_valid": true, "ebird_reviewed": false, "locationPrivate": true, "ebird_subId": "S131097296", "ebird_location_name": "4765 Lonsdale Cir, Orlando US-FL 28.60759, -81.26222"}}, {"type": "Feature", "geometry": {"type": "Point", "coordinates": [-81.550071, 28.633542]}, "properties": {"ebird_locid": "L298652", "observation_date": "2023-03-16 15:00", "individuals": 2, "ebird_valid": true, "ebird_reviewed": false, "locationPrivate": false, "ebird_subId": "S131052662", "ebird_location_name": "Magnolia Park"}}, {"type": "Feature", "geometry": {"type": "Point", "coordinates": [-81.561127, 28.35651]}, "properties": {"ebird_locid": "L970058", "observation_date": "2023-03-16 11:47", "individuals": 1, "ebird_valid": true, "ebird_reviewed": false, "locationPrivate": false, "ebird_subId": "S131065265", "ebird_location_name": "Walt Disney World--Hollywood Studios"}}, {"type": "Feature", "geometry": {"type": "Point", "coordinates": [-81.549036, 28.371361]}, "properties": {"ebird_locid": "L200733", "observation_date": "2023-03-16 11:17", "individuals": 3, "ebird_valid": true, "ebird_reviewed": false, "locationPrivate": false, "ebird_subId": "S131072396", "ebird_location_name": "Walt Disney World--EPCOT"}}, {"type": "Feature", "geometry": {"type": "Point", "coordinates": [-81.580157, 28.404905]}, "properties": {"ebird_locid": "L1781494", "observation_date": "2023-03-16 07:35", "individuals": 2, "ebird_valid": true, "ebird_reviewed": false, "locationPrivate": false, "ebird_subId": "S131024007", "ebird_location_name": "Disney's Magic Kingdom Park--Ticket and Transportation Center"}}, {"type": "Feature", "geometry": {"type": "Point", "coordinates": [-81.615203, 28.56163]}, "properties": {"ebird_locid": "L15526991", "observation_date": "2023-03-15 10:38", "individuals": 2, "ebird_valid": true, "ebird_reviewed": false, "locationPrivate": true, "ebird_subId": "S130966878", "ebird_location_name": "Oakland Park, Winter Garden US-FL"}}, {"type": "Feature", "geometry": {"type": "Point", "coordinates": [-81.259178, 28.606748]}, "properties": {"ebird_locid": "L21338180", "observation_date": "2023-03-15 08:25", "individuals": 2, "ebird_valid": true, "ebird_reviewed": false, "locationPrivate": true, "ebird_subId": "S130954836", "ebird_location_name": "4544 Bridgewater Dr, Orlando US-FL 28.60675, -81.25918"}}, {"type": "Feature", "geometry": {"type": "Point", "coordinates": [-81.490014, 28.407662]}, "properties": {"ebird_locid": "L1430164", "observation_date": "2023-03-14 18:10", "individuals": 2, "ebird_valid": true, "ebird_reviewed": false, "locationPrivate": false, "ebird_subId": "S130956339", "ebird_location_name": "Dr. P. Phillips Community Park"}}, {"type": "Feature", "geometry": {"type": "Point", "coordinates": [-81.571609, 28.410389]}, "properties": {"ebird_locid": "L3860725", "observation_date": "2023-03-14 15:44", "individuals": 1, "ebird_valid": true, "ebird_reviewed": false, "locationPrivate": false, "ebird_subId": "S130919175", "ebird_location_name": "Disney's Wilderness Lodge"}}, {"type": "Feature", "geometry": {"type": "Point", "coordinates": [-81.554887, 28.675844]}, "properties": {"ebird_locid": "L15456221", "observation_date": "2023-03-14 08:53", "individuals": 1, "ebird_valid": true, "ebird_reviewed": false, "locationPrivate": false, "ebird_subId": "S130891311", "ebird_location_name": "Avian Pointe"}}, {"type": "Feature", "geometry": {"type": "Point", "coordinates": [-80.996387, 28.571695]}, "properties": {"ebird_locid": "L23040273", "observation_date": "2023-03-13 18:08", "individuals": 2, "ebird_valid": true, "ebird_reviewed": false, "locationPrivate": true, "ebird_subId": "S130864261", "ebird_location_name": "32709, Christmas US-FL (28.5717,-80.9964)"}}, {"type": "Feature", "geometry": {"type": "Point", "coordinates": [-81.377435, 28.44556]}, "properties": {"ebird_locid": "L23031896", "observation_date": "2023-03-13 07:58", "individuals": 1, "ebird_valid": true, "ebird_reviewed": false, "locationPrivate": true, "ebird_subId": "S130825919", "ebird_location_name": "SR-528 E, Orlando US-FL 28.44556, -81.37743"}}, {"type": "Feature", "geometry": {"type": "Point", "coordinates": [-81.459682, 28.432351]}, "properties": {"ebird_locid": "L13818846", "observation_date": "2023-03-12 17:48", "individuals": 7, "ebird_valid": true, "ebird_reviewed": false, "locationPrivate": false, "ebird_subId": "S130800102", "ebird_location_name": "Orange County Convention Center--North Concourse"}}, {"type": "Feature", "geometry": {"type": "Point", "coordinates": [-81.497364, 28.671825]}, "properties": {"ebird_locid": "L10329652", "observation_date": "2023-03-12 17:45", "individuals": 1, "ebird_valid": true, "ebird_reviewed": false, "locationPrivate": false, "ebird_subId": "S130797821", "ebird_location_name": "Highland Manor pond"}}, {"type": "Feature", "geometry": {"type": "Point", "coordinates": [-81.645274, 28.412263]}, "properties": {"ebird_locid": "L19612639", "observation_date": "2023-03-12 14:55", "individuals": 2, "ebird_valid": true, "ebird_reviewed": false, "locationPrivate": true, "ebird_subId": "S130790695", "ebird_location_name": "Home"}}, {"type": "Feature", "geometry": {"type": "Point", "coordinates": [-81.624641, 28.67857]}, "properties": {"ebird_locid": "L2722565", "observation_date": "2023-03-12 13:37", "individuals": 7, "ebird_valid": true, "ebird_reviewed": false, "locationPrivate": false, "ebird_subId": "S130777295", "ebird_location_name": "Lake Apopka Loop Trail--Historic Pump House to County Line"}}, {"type": "Feature", "geometry": {"type": "Point", "coordinates": [-81.56388, 28.385289]}, "properties": {"ebird_locid": "L2481807", "observation_date": "2023-03-12 08:59", "individuals": 1, "ebird_valid": true, "ebird_reviewed": false, "locationPrivate": false, "ebird_subId": "S130732316", "ebird_location_name": "Walt Disney World"}}, {"type": "Feature", "geometry": {"type": "Point", "coordinates": [-81.462553, 28.520256]}, "properties": {"ebird_locid": "L16939096", "observation_date": "2023-03-12 08:58", "individuals": 2, "ebird_valid": true, "ebird_reviewed": false, "locationPrivate": true, "ebird_subId": "S130732980", "ebird_location_name": "Lake Pamela"}}, {"type": "Feature", "geometry": {"type": "Point", "coordinates": [-81.464402, 28.518242]}, "properties": {"ebird_locid": "L22948239", "observation_date": "2023-03-12 08:42", "individuals": 1, "ebird_valid": true, "ebird_reviewed": false, "locationPrivate": true, "ebird_subId": "S130731201", "ebird_location_name": "Valencia West Campus South Pond"}}, {"type": "Feature", "geometry": {"type": "Point", "coordinates": [-81.299053, 28.510937]}, "properties": {"ebird_locid": "L21437864", "observation_date": "2023-03-12 07:33", "individuals": 1, "ebird_valid": true, "ebird_reviewed": false, "locationPrivate": true, "ebird_subId": "S130736985", "ebird_location_name": "Ventura Country Club, Orlando US-FL 28.51094, -81.29905"}}, {"type": "Feature", "geometry": {"type": "Point", "coordinates": [-81.51448, 28.371344]}, "properties": {"ebird_locid": "L2440827", "observation_date": "2023-03-11 17:22", "individuals": 11, "ebird_valid": true, "ebird_reviewed": false, "locationPrivate": false, "ebird_subId": "S130699331", "ebird_location_name": "Disney Springs"}}, {"type": "Feature", "geometry": {"type": "Point", "coordinates": [-81.362439, 28.596057]}, "properties": {"ebird_locid": "L17620681", "observation_date": "2023-03-19 12:59", "individuals": 1, "ebird_valid": true, "ebird_reviewed": false, "locationPrivate": false, "ebird_subId": "S131297192", "ebird_location_name": "Martin Luther King Jr. Park"}}, {"type": "Feature", "geometry": {"type": "Point", "coordinates": [-81.366959, 28.531607]}, "properties": {"ebird_locid": "L284289", "observation_date": "2023-03-19 12:19", "individuals": 2, "ebird_valid": true, "ebird_reviewed": false, "locationPrivate": false, "ebird_subId": "S131292001", "ebird_location_name": "Lake Davis"}}, {"type": "Feature", "geometry": {"type": "Point", "coordinates": [-81.348771, 28.578739]}, "properties": {"ebird_locid": "L758765", "observation_date": "2023-03-19 10:16", "individuals": 2, "ebird_valid": true, "ebird_reviewed": false, "locationPrivate": true, "ebird_subId": "S131277687", "ebird_location_name": "Lake Chelton"}}, {"type": "Feature", "geometry": {"type": "Point", "coordinates": [-81.581254, 28.418787]}, "properties": {"ebird_locid": "L970066", "observation_date": "2023-03-18 10:50", "individuals": 1, "ebird_valid": true, "ebird_reviewed": false, "locationPrivate": false, "ebird_subId": "S131183919", "ebird_location_name": "Walt Disney World--Magic Kingdom"}}, {"type": "Feature", "geometry": {"type": "Point", "coordinates": [-81.259253, 28.606657]}, "properties": {"ebird_locid": "L22689932", "observation_date": "2023-03-15 10:11", "individuals": 4, "ebird_valid": true, "ebird_reviewed": false, "locationPrivate": true, "ebird_subId": "S130963204", "ebird_location_name": "Watermill Recreation Park & Pond"}}, {"type": "Feature", "geometry": {"type": "Point", "coordinates": [-80.996296, 28.571235]}, "properties": {"ebird_locid": "L452007", "observation_date": "2023-03-13 14:20", "individuals": 2, "ebird_valid": true, "ebird_reviewed": false, "locationPrivate": false, "ebird_subId": "S130865012", "ebird_location_name": "Orlando Wetlands Park"}}, {"type": "Feature", "geometry": {"type": "Point", "coordinates": [-81.267065, 28.368258]},